Nombre,Comuna,Direccion,Tipos,Lng,Lat,Ciudad,Icono,Id
Colegio Saint John's Villa Academy,La Reina,"Alcalde Manuel de La Lastra 2351, La Reina, Región Metropolitana","['university', 'point_of_interest', 'establishment']",-33.4331316,-70.5545685,Santiago,https://maps.gstatic.com/mapfiles/place_api/icons/school-71.png,ChIJW6xM4F7OYpYR3rccMm1Ex8I
Mall Plaza Egaña,La Reina,"Av. Larrain 5862, La Reina, Región Metropolitana","['shopping_mall', 'point_of_interest', 'establishment']",-33.4523407,-70.5694987,Santiago,https://maps.gstatic.com/mapfiles/place_api/icons/shopping-71.png,ChIJk_9sOUrOYpYRA6Arf_OmqD0
"Patio La Reina, La Reina",La Reina,"Av. Alcalde Fernando Castillo Velasco 8751, La Reina, Región Metropolitana","['shopping_mall', 'point_of_interest', 'establishment']",-33.4518522,-70.54063610000001,Santiago,https://maps.gstatic.com/mapfiles/place_api/icons/shopping-71.png,ChIJ0__k5BLOYpYRjTZFcZhkCW8
Estadio Banco Central,La Reina,"Príncipe de Gales 6030, La Reina, Región Metropolitana","['stadium', 'point_of_interest', 'establishment']",-33.4373338,-70.5707422,Santiago,https://maps.gstatic.com/mapfiles/place_api/icons/generic_business-71.png,ChIJ3acDXlTOYpYRyN9BDmhbdGk
Fundación Gantz,Pudahuel,"El Lazo 8545, Pudahuel, Región Metropolitana","['hospital', 'point_of_interest', 'establishment']",-33.4382118,-70.7475532,Santiago,https://maps.gstatic.com/mapfiles/place_api/icons/doctor-71.png,ChIJn2rXO8fDYpYRoKAEuCzWZLs
CESFAM Dr. Gustavo Molina Guzmán,Pudahuel,"Av. Laguna Sur 8759, Pudahuel, Región Metropolitana","['hospital', 'doctor', 'health', 'point_of_interest', 'establishment']",-33.458125,-70.76092,Santiago,https://maps.gstatic.com/mapfiles/place_api/icons/doctor-71.png,ChIJM3ewf6zDYpYRq9OjW4FBg_Y
Prodial Ltda.,Pudahuel,"San Daniel 9463-9473, Pudahuel, Región Metropolitana","['hospital', 'point_of_interest', 'establishment']",-33.4289891,-70.76608639999999,Santiago,https://maps.gstatic.com/mapfiles/place_api/icons/doctor-71.png,ChIJpfsg5yzCYpYRXYOUdgOuo_0
FBO AVIASUR,Pudahuel,"Aviador David Fuentes Norte 2205, Aviador David Fuentes 2205, Pudahuel, Región Metropolitana","['university', 'point_of_interest', 'establishment']",-33.3919727,-70.792878,Santiago,https://maps.gstatic.com/mapfiles/place_api/icons/school-71.png,ChIJt0vdKV65YpYR9LpZdwVzjD4
Biblioteca Pública N°105 Gala Torres,Pudahuel,"Av, San Pablo 9078, Pudahuel, Región Metropolitana","['library', 'point_of_interest', 'establishment']",-33.4419099,-70.76215049999999,Santiago,https://maps.gstatic.com/mapfiles/place_api/icons/library-71.png,ChIJkb0lncrDYpYR5ANYDHTq4us
Style Outlet,Pudahuel,"Claudio Arrau 6910, Pudahuel, Región Metropolitana","['shopping_mall', 'point_of_interest', 'establishment']",-33.4553706,-70.73375469999999,Santiago,https://maps.gstatic.com/mapfiles/place_api/icons/shopping-71.png,ChIJ9capPZzDYpYRPWQLPujmvCg
Paseo Barrancas,Pudahuel,"Teniente Cruz 570, Pudahuel, Región Metropolitana","['shopping_mall', 'point_of_interest', 'establishment']",-33.4548239,-70.739054,Santiago,https://maps.gstatic.com/mapfiles/place_api/icons/shopping-71.png,ChIJ_TYVNZ_DYpYRarF_uYjgHXE
Fernapet,Pudahuel,"Camino San Pedro 9677, Pudahuel, Región Metropolitana","['shopping_mall', 'point_of_interest', 'establishment']",-33.4519652,-70.783208,Santiago,https://maps.gstatic.com/mapfiles/place_api/icons/shopping-71.png,ChIJL8BwiLzDYpYRfmhFseZLV7M
Bodeganga UMIX,Pudahuel,"9020000, Pudahuel, Región Metropolitana","['shopping_mall', 'point_of_interest', 'establishment']",-33.4288197,-70.77696279999999,Santiago,https://maps.gstatic.com/mapfiles/place_api/icons/shopping-71.png,ChIJy-fKWeXDYpYRsRKk-2UZ7Do
Museo Chileno de Arte Precolombino,Santiago,"Bandera 361, Santiago, Región Metropolitana","['museum', 'tourist_attraction', 'point_of_interest', 'establishment']",-33.4389304,-70.6521053,Santiago,https://maps.gstatic.com/mapfiles/place_api/icons/museum-71.png,ChIJ58cpbKTFYpYRw3pfdBEEHEQ
Municipalidad de Cerro Navia,Cerro Navia,"Del Consistorial 6645, Cerro Navia, Región Metropolitana","['city_hall', 'local_government_office', 'point_of_interest', 'establishment']",-33.4341984,-70.7290278,Santiago,https://maps.gstatic.com/mapfiles/place_api/icons/civic_building-71.png,ChIJL3jAYu3DYpYRF7opY5XZQGY
Universo Chino,Cerro Navia,"Mapocho 6110D, Quinta Normal, Cerro Navia, Región Metropolitana","['shopping_mall', 'point_of_interest', 'establishment']",-33.4256768,-70.7192905,Santiago,https://maps.gstatic.com/mapfiles/place_api/icons/shopping-71.png,ChIJg7MMmffDYpYRRE1-4u3Sp1A
Centro Artesanal Pueblito Los Dominicos,Las Condes,"Apoquindo 9085, Las Condes, Región Metropolitana","['tourist_attraction', 'point_of_interest', 'establishment']",-33.408414,-70.541708,Santiago,https://maps.gstatic.com/mapfiles/place_api/icons/generic_business-71.png,ChIJf2w7OpbOYpYRVIl7ACCtOEY
Parque Araucano,Las Condes,"Av. Pdte. Riesco 5877, Las Condes, Región Metropolitana","['tourist_attraction', 'park', 'point_of_interest', 'establishment']",-33.402213,-70.57274029999999,Santiago,https://maps.gstatic.com/mapfiles/place_api/icons/generic_recreational-71.png,ChIJNUsKwiXPYpYR7pdrQ2v-ntE
Parque Aguas de San Ramón,Las Condes,"Alvaro Casanova 2851, Las Condes, Región Metropolitana","['tourist_attraction', 'park', 'point_of_interest', 'establishment']",-33.44492779999999,-70.45839099999999,Santiago,https://maps.gstatic.com/mapfiles/place_api/icons/generic_recreational-71.png,ChIJrXkx69DNYpYRdwuKZrj_PRA
Sky Costanera,Providencia,"Andrés Bello 2425, Providencia, Región Metropolitana","['tourist_attraction', 'point_of_interest', 'establishment']",-33.4167134,-70.6067386,Santiago,https://maps.gstatic.com/mapfiles/place_api/icons/generic_business-71.png,ChIJN4V0fkLPYpYRm2jflwE_YSA
Museo Interactivo Las Condes (MUI),Las Condes,"Isidora Goyenechea 3400, Las Condes, Región Metropolitana","['museum', 'tourist_attraction', 'point_of_interest', 'establishment']",-33.4143982,-70.5953876,Santiago,https://maps.gstatic.com/mapfiles/place_api/icons/museum-71.png,ChIJh1I5zD_PYpYRs277RZ4bOyA
Casona Santa Rosa de Apoquindo,Las Condes,"Padre Hurtado Sur 1195, Las Condes, Región Metropolitana","['tourist_attraction', 'museum', 'point_of_interest', 'establishment']",-33.4190416,-70.5392133,Santiago,https://maps.gstatic.com/mapfiles/place_api/icons/museum-71.png,ChIJL1R2YIXOYpYRCSUJS6wMifI
KidZania Santiago,Las Condes,"Av. Pdte. Riesco 5330, Las Condes, Región Metropolitana","['amusement_park', 'tourist_attraction', 'point_of_interest', 'establishment']",-33.4031576,-70.5753065,Santiago,https://maps.gstatic.com/mapfiles/place_api/icons/generic_business-71.png,ChIJ-WfJ6SfPYpYRltM5rIfynVk
Observatorio Astronómico Nacional,Las Condes,"Camino del Observatorio, Santiago, Las Condes, Región Metropolitana","['tourist_attraction', 'point_of_interest', 'establishment']",-33.396479,-70.5370116,Santiago,https://maps.gstatic.com/mapfiles/place_api/icons/generic_business-71.png,ChIJIVGKP6XOYpYR5wE8F0-VRfs
Costanera Center,Providencia,"Avenida Andrés Bello 2425, Providencia, Región Metropolitana","['tourist_attraction', 'point_of_interest', 'establishment']",-33.4179935,-70.6063901,Santiago,https://maps.gstatic.com/mapfiles/place_api/icons/generic_business-71.png,ChIJUUmF1GnPYpYR39Cq7y_vh5o
Parque Padre Hurtado,La Reina,"Av. Francisco Bilbao, 8105, La Reina, Región Metropolitana","['park', 'tourist_attraction', 'point_of_interest', 'establishment']",-33.43178,-70.5453808,Santiago,https://maps.gstatic.com/mapfiles/place_api/icons/generic_recreational-71.png,ChIJe59sA2DOYpYRhpD6mzVeDDE
Parque Natural San Carlos de Apoquindo,La Reina,Región Metropolitana,"['tourist_attraction', 'park', 'point_of_interest', 'establishment']",-33.4033797,-70.476582,Santiago,https://maps.gstatic.com/mapfiles/place_api/icons/generic_recreational-71.png,ChIJt7qVhkLMYpYRNh8MnBtvUP4
La Chascona,Providencia,"Fernando Márquez de La Plata 0192, Santiago, Providencia, Región Metropolitana","['museum', 'tourist_attraction', 'point_of_interest', 'establishment']",-33.4311212,-70.6344175,Santiago,https://maps.gstatic.com/mapfiles/place_api/icons/museum-71.png,ChIJbWHLF5DFYpYRFqGp8hFH-04
Museo Parque de las Esculturas,Providencia,"Av. Sta. María 2205, Providencia, Región Metropolitana","['tourist_attraction', 'museum', 'point_of_interest', 'establishment']",-33.4200134,-70.61299129999999,Santiago,https://maps.gstatic.com/mapfiles/place_api/icons/museum-71.png,ChIJTxiMAGHPYpYRQRXT180PSEM
Clínica Las Condes,Las Condes,"Estoril 450, Las Condes, Región Metropolitana","['hospital', 'health', 'point_of_interest', 'establishment']",-33.3847568,-70.5302245,Santiago,https://maps.gstatic.com/mapfiles/place_api/icons/doctor-71.png,ChIJ73EaMKvOYpYRrxilZyvmm34
Hospital DIPRECA,Las Condes,"Vital Apoquindo 1200, Las Condes, Región Metropolitana","['hospital', 'point_of_interest', 'establishment']",-33.4174394,-70.52806439999999,Santiago,https://maps.gstatic.com/mapfiles/place_api/icons/doctor-71.png,ChIJb_ss4ILOYpYRxq8f8nFQzko
Hospital Fach,Las Condes,"Av. las Condes 8631, Las Condes, Región Metropolitana","['hospital', 'point_of_interest', 'establishment']",-33.3964788,-70.5474055,Santiago,https://maps.gstatic.com/mapfiles/place_api/icons/doctor-71.png,ChIJGUXVeLfOYpYR9mX9lHfqrlQ
"Cesfam Apoquindo,Las Condes",Las Condes,"Cerro Altar 6611, Las Condes, Región Metropolitana","['hospital', 'point_of_interest', 'establishment']",-33.40028390000001,-70.5644282,Santiago,https://maps.gstatic.com/mapfiles/place_api/icons/doctor-71.png,ChIJ2xpRadrOYpYRIpzXN_U5f_k
IntegraMédica Las Condes,Las Condes,"Av Presidente Kennedy 9001, Piso 3, Las Condes, Región Metropolitana","['hospital', 'point_of_interest', 'establishment']",-33.390909,-70.5461548,Santiago,https://maps.gstatic.com/mapfiles/place_api/icons/doctor-71.png,ChIJgwc9ZrTOYpYRxCcj4R_Wnmg
"Edificio G azul, Clínica Las Condes",Las Condes,"Camino del Enfermo, Las Condes, Región Metropolitana","['hospital', 'point_of_interest', 'establishment']",-33.3843322,-70.5317151,Santiago,https://maps.gstatic.com/mapfiles/place_api/icons/doctor-71.png,ChIJ-4pCKzbPYpYRmIOuVj28NdY
Municipalidad de Las Condes,Las Condes,"Av. Apoquindo 3400, Las Condes, Región Metropolitana","['city_hall', 'local_government_office', 'point_of_interest', 'establishment']",-33.4160267,-70.5947928,Santiago,https://maps.gstatic.com/mapfiles/place_api/icons/civic_building-71.png,ChIJn-erbRXPYpYR08AgD0XtQLg
Universidad de los Andes,Las Condes,"Monseñor Álvaro del Portillo 12455, Santiago, Las Condes, Región Metropolitana","['university', 'point_of_interest', 'establishment']",-33.4043009,-70.5064082,Santiago,https://maps.gstatic.com/mapfiles/place_api/icons/school-71.png,ChIJbRiEeD7MYpYRk4GqqcD_NxQ
UNAB - Universidad Andrés Bello,Las Condes,"Fernández Concha 700, Santiago, Las Condes, Región Metropolitana","['university', 'point_of_interest', 'establishment']",-33.3762168,-70.5049425,Santiago,https://maps.gstatic.com/mapfiles/place_api/icons/school-71.png,ChIJaY8Ci_TLYpYRgSww2NPKAxo
Universidad Adolfo Ibáñez - Sede Presidente Errázuriz,Las Condes,"Pdte Errázuriz 3485, Las Condes, Región Metropolitana","['university', 'point_of_interest', 'establishment']",-33.4211063,-70.5917138,Santiago,https://maps.gstatic.com/mapfiles/place_api/icons/school-71.png,ChIJMROL5BPPYpYRpcLvv7KWiXI
Duoc UC San Carlos de Apoquindo,Las Condes,"Camino El Alba 12881, Las Condes, Región Metropolitana","['university', 'point_of_interest', 'establishment']",-33.4003253,-70.5056056,Santiago,https://maps.gstatic.com/mapfiles/place_api/icons/school-71.png,ChIJVYVfeRXMYpYRtbGwtO5MWXg
Campus Oriente Universidad Mayor,Las Condes,"Av. Apoquindo 6901-6947, Las Condes, Región Metropolitana","['university', 'point_of_interest', 'establishment']",-33.40779920000001,-70.55803440000001,Santiago,https://maps.gstatic.com/mapfiles/place_api/icons/school-71.png,ChIJQRN2QcLOYpYRxIbR4nGtAfY
Inacap Apoquindo,Las Condes,"Av. Apoquindo 7282, Las Condes, Región Metropolitana","['university', 'point_of_interest', 'establishment']",-33.4075505,-70.55260729999999,Santiago,https://maps.gstatic.com/mapfiles/place_api/icons/school-71.png,ChIJv86kLsDOYpYR404p1h5x3Sk
"Universidad de Chile, Departamento de Astronomía",Las Condes,"Santiago, Las Condes, Región Metropolitana","['university', 'point_of_interest', 'establishment']",-33.39617,-70.53697939999999,Santiago,https://maps.gstatic.com/mapfiles/place_api/icons/school-71.png,ChIJGQryQaXOYpYRS0OkW4BqRpo
Universidad de Chile,Santiago,"Av Libertador Bernardo O'Higgins 1058, Santiago, Región Metropolitana","['university', 'point_of_interest', 'establishment']",-33.4445204,-70.6509277,Santiago,https://maps.gstatic.com/mapfiles/place_api/icons/school-71.png,ChIJmWiMaajFYpYRN0JWc6XL4mQ
Pontificia Universidad Católica de Chile,Santiago,"Av Libertador Bernardo O'Higgins 340, Santiago, Región Metropolitana","['university', 'point_of_interest', 'establishment']",-33.4411279,-70.6407933,Santiago,https://maps.gstatic.com/mapfiles/place_api/icons/school-71.png,ChIJH41QjJ7FYpYRFjHYO41_2dc
Facultad de Economía y Negocios (FEN) de la Universidad de Chile,Santiago,"Diagonal Paraguay 257, Santiago, Región Metropolitana","['university', 'point_of_interest', 'establishment']",-33.4426768,-70.6369751,Santiago,https://maps.gstatic.com/mapfiles/place_api/icons/school-71.png,ChIJtU4Mdp3FYpYRvlMjoIPzrDM
Universidad Alberto Hurtado,Santiago,"Av Libertador Bernardo O'Higgins 1869, Santiago, Región Metropolitana","['university', 'point_of_interest', 'establishment']",-33.4460299,-70.66224869999999,Santiago,https://maps.gstatic.com/mapfiles/place_api/icons/school-71.png,ChIJIaejo6nFYpYRSXbGJbi8FyQ
MBA UChile,Santiago,"Av. República 701, Santiago, Región Metropolitana","['university', 'point_of_interest', 'establishment']",-33.4569319,-70.66692689999999,Santiago,https://maps.gstatic.com/mapfiles/place_api/icons/school-71.png,ChIJPSTb-ALFYpYRoNVgFNEoSBs
Biblioteca Las Condes,Las Condes,"Nuestra Señora del Rosario 30, Santiago, Las Condes, Región Metropolitana","['library', 'point_of_interest', 'establishment']",-33.4053703,-70.5619324,Santiago,https://maps.gstatic.com/mapfiles/place_api/icons/library-71.png,ChIJK8vHTcPOYpYR3nmDI9Lqj7g
Biblioteca Comunitaria Santa Zita (provisoria),Las Condes,"Sta Zita 9234, Las Condes, Región Metropolitana","['library', 'point_of_interest', 'establishment']",-33.4249163,-70.5331641,Santiago,https://maps.gstatic.com/mapfiles/place_api/icons/school-71.png,ChIJo6l0MIfOYpYRGeMScC1DIBQ
Alto Las Condes,Las Condes,"Av. Pdte. Kennedy Lateral 9001, Las Condes, Región Metropolitana","['shopping_mall', 'point_of_interest', 'establishment']",-33.390815,-70.545992,Santiago,https://maps.gstatic.com/mapfiles/place_api/icons/shopping-71.png,ChIJJbk1aLTOYpYRZPW8D7EnOc0
Parque Arauco,Las Condes,"Av Presidente Kennedy 5413, Las Condes, Región Metropolitana","['shopping_mall', 'point_of_interest', 'establishment']",-33.4021934,-70.57824939999999,Santiago,https://maps.gstatic.com/mapfiles/place_api/icons/shopping-71.png,ChIJRwJopCjPYpYRFLSKf8FBgSc
Museo Interactivo Las Condes (MUI),Las Condes,"Isidora Goyenechea 3400, Las Condes, Región Metropolitana","['museum', 'tourist_attraction', 'point_of_interest', 'establishment']",-33.4143982,-70.5953876,Santiago,https://maps.gstatic.com/mapfiles/place_api/icons/museum-71.png,ChIJh1I5zD_PYpYRs277RZ4bOyA
Museo Escuela Militar,Las Condes,"Av. Pdte. Riesco 4601, Las Condes, Región Metropolitana","['museum', 'tourist_attraction', 'point_of_interest', 'establishment']",-33.4119391,-70.58381949999999,Santiago,https://maps.gstatic.com/mapfiles/place_api/icons/museum-71.png,ChIJIREieiPPYpYRDfE8jevbdcM
Casona Santa Rosa de Apoquindo,Las Condes,"Padre Hurtado Sur 1195, Las Condes, Región Metropolitana","['tourist_attraction', 'museum', 'point_of_interest', 'establishment']",-33.4190416,-70.5392133,Santiago,https://maps.gstatic.com/mapfiles/place_api/icons/museum-71.png,ChIJL1R2YIXOYpYRCSUJS6wMifI
Museo de la chilenidad,Las Condes,"Padre Hurtado Sur 1195, Las Condes, Región Metropolitana","['museum', 'point_of_interest', 'establishment']",-33.4188996,-70.53818009999999,Santiago,https://maps.gstatic.com/mapfiles/place_api/icons/museum-71.png,ChIJKfZUM7PPYpYRo_jQm9OjKJg
La Chascona,Providencia,"Fernando Márquez de La Plata 0192, Santiago, Providencia, Región Metropolitana","['museum', 'tourist_attraction', 'point_of_interest', 'establishment']",-33.4311212,-70.6344175,Santiago,https://maps.gstatic.com/mapfiles/place_api/icons/museum-71.png,ChIJbWHLF5DFYpYRFqGp8hFH-04
Museo Chileno de Arte Precolombino,Santiago,"Bandera 361, Santiago, Región Metropolitana","['museum', 'tourist_attraction', 'point_of_interest', 'establishment']",-33.4389304,-70.6521053,Santiago,https://maps.gstatic.com/mapfiles/place_api/icons/museum-71.png,ChIJ58cpbKTFYpYRw3pfdBEEHEQ
Museo Ralli Santiago,Santiago,"Calle Alonso de Sotomayor 4110, Vitacura, Santiago, Región Metropolitana","['tourist_attraction', 'museum', 'point_of_interest', 'establishment']",-33.3970153,-70.5917616,Santiago,https://maps.gstatic.com/mapfiles/place_api/icons/museum-71.png,ChIJA3FMjDPPYpYRJ8Rs-oaMjXA
Museo Parque de las Esculturas,Providencia,"Av. Sta. María 2205, Providencia, Región Metropolitana","['tourist_attraction', 'museum', 'point_of_interest', 'establishment']",-33.4200134,-70.61299129999999,Santiago,https://maps.gstatic.com/mapfiles/place_api/icons/museum-71.png,ChIJTxiMAGHPYpYRQRXT180PSEM
Museo Nacional de Bellas Artes,Santiago,"José Miguel de La Barra 650, Santiago, Región Metropolitana","['tourist_attraction', 'museum', 'point_of_interest', 'establishment']",-33.4353465,-70.643551,Santiago,https://maps.gstatic.com/mapfiles/place_api/icons/museum-71.png,ChIJ34hkUJjFYpYRukdH5TMSJsQ
Estadio San Carlos de Apoquindo,Las Condes,"Circunvalación Las Flores 13000, Las Condes, Región Metropolitana","['stadium', 'point_of_interest', 'establishment']",-33.3960344,-70.50053969999999,Santiago,https://maps.gstatic.com/mapfiles/place_api/icons/generic_business-71.png,ChIJ5aKnaRrMYpYR6GCUd2dBYHA
Estadio Las Condes,Las Condes,"Av. las Condes 11.755, Las Condes, Región Metropolitana","['gym', 'stadium', 'health', 'point_of_interest', 'establishment']",-33.3750354,-70.5217509,Santiago,https://maps.gstatic.com/mapfiles/place_api/icons/generic_business-71.png,ChIJm7GN1v3LYpYRoXi3Euj1Csw
Estadio San Jorge,Las Condes,"Paul Harris 9388, Las Condes, Región Metropolitana","['stadium', 'point_of_interest', 'establishment']",-33.3920106,-70.5365334,Santiago,https://maps.gstatic.com/mapfiles/place_api/icons/generic_business-71.png,ChIJIyV6T67OYpYRK3_R6RLk4u4
Centro Médico y Dental RedSalud Quilicura,Quilicura,"O'Higgins 581, Local 67, Quilicura, Región Metropolitana","['hospital', 'dentist', 'health', 'point_of_interest', 'establishment']",-33.3602185,-70.7295622,Santiago,https://maps.gstatic.com/mapfiles/place_api/icons/doctor-71.png,ChIJ3ZaOmtnAYpYReIzVXBoAkXM
Mutual de Seguridad,Quilicura,"Pdte Eduardo Frei Montalva 7500, Quilicura, Región Metropolitana","['hospital', 'point_of_interest', 'establishment']",-33.3648942,-70.7018442,Santiago,https://maps.gstatic.com/mapfiles/place_api/icons/doctor-71.png,ChIJX0KfqN3GYpYRrlNU9jFA18w
Biblioteca Municipal de Quilicura,Quilicura,"O'Higgins 281, Quilicura, Región Metropolitana","['library', 'point_of_interest', 'establishment']",-33.3664962,-70.7307459,Santiago,https://maps.gstatic.com/mapfiles/place_api/icons/school-71.png,ChIJZUTsQsXAYpYRdNrCbLcB3dg
Arauco Premium Outlet Buenaventura,Quilicura,"San Ignacio 500 Y 300, Quilicura, Región Metropolitana","['shopping_mall', 'point_of_interest', 'establishment']",-33.3320303,-70.7035477,Santiago,https://maps.gstatic.com/mapfiles/place_api/icons/shopping-71.png,ChIJ2wJIr1DHYpYRjy660q7bjhk
Mall Arauco Quilicura,Quilicura,"Av. Bernardo O'Higgins 581, Quilicura, Región Metropolitana","['shopping_mall', 'point_of_interest', 'establishment']",-33.3683552,-70.7300176,Santiago,https://maps.gstatic.com/mapfiles/place_api/icons/shopping-71.png,ChIJs0_dJrjAYpYRcNBIAVe1rZE
Easton Outlet Mall,Quilicura,"Pdte Eduardo Frei Montalva, Quilicura, Región Metropolitana","['shopping_mall', 'point_of_interest', 'establishment']",-33.3346543,-70.71235899999999,Santiago,https://maps.gstatic.com/mapfiles/place_api/icons/shopping-71.png,ChIJ6-A5HEzHYpYR6FpaJ_wvLx4
Outlet Buenaventura,Quilicura,"San Ignacio 800, Quilicura, Región Metropolitana","['shopping_mall', 'point_of_interest', 'establishment']",-33.3322602,-70.7081347,Santiago,https://maps.gstatic.com/mapfiles/place_api/icons/shopping-71.png,ChIJL_6zIVHHYpYRENHagXufw5o
Outlet Quilicura,Quilicura,"San Ignacio 500, Quilicura, Región Metropolitana","['shopping_mall', 'point_of_interest', 'establishment']",-33.3312361,-70.7049394,Santiago,https://maps.gstatic.com/mapfiles/place_api/icons/shopping-71.png,ChIJkzUcCFrHYpYRl8KZ8U8sq7Y
Outlet Boulevard,Quilicura,"San Ignacio 1001, Quilicura, Región Metropolitana","['shopping_mall', 'point_of_interest', 'establishment']",-33.3327087,-70.7109677,Santiago,https://maps.gstatic.com/mapfiles/place_api/icons/shopping-71.png,ChIJIdo74FPHYpYRhjfzqpTiOvA
MALL MILAN Chile Limitada,Quilicura,"José Francisco Vergara 95, Quilicura, Región Metropolitana","['shopping_mall', 'point_of_interest', 'establishment']",-33.3664904,-70.7363271,Santiago,https://maps.gstatic.com/mapfiles/place_api/icons/shopping-71.png,ChIJeX5cQNzAYpYRfabMep97CfI
Lippi Outlet,Quilicura,"San Ignacio 200, Quilicura, Región Metropolitana","['shopping_mall', 'point_of_interest', 'establishment']",-33.3316496,-70.7017147,Santiago,https://maps.gstatic.com/mapfiles/place_api/icons/shopping-71.png,ChIJKY9ztFvHYpYR8lWotkCVFPk
Hites,Quilicura,"Av. Bernardo O'Higgins 281, Quilicura, Región Metropolitana","['shopping_mall', 'point_of_interest', 'establishment']",-33.368383,-70.7301173,Santiago,https://maps.gstatic.com/mapfiles/place_api/icons/shopping-71.png,ChIJt0k6j9nAYpYRRvBLnjm-CrI
Strip Center Patio Quilicura,Quilicura,"Santiago, Quilicura, Región Metropolitana","['shopping_mall', 'point_of_interest', 'establishment']",-33.35533,-70.72883,Santiago,https://maps.gstatic.com/mapfiles/place_api/icons/shopping-71.png,ChIJU0u_AsbAYpYRRREmbC-gxnc
Parque Arauco Outlet Buenaventura,Quilicura,"San Ignacio 500, Quilicura, Región Metropolitana","['shopping_mall', 'point_of_interest', 'establishment']",-33.33152750000001,-70.70483639999999,Santiago,https://maps.gstatic.com/mapfiles/place_api/icons/shopping-71.png,ChIJbbU5ClrHYpYRur9q2zAcu0M
Aires del Mueble,Quilicura,"San Ignacio 701, Quilicura, Región Metropolitana","['shopping_mall', 'point_of_interest', 'establishment']",-33.3317542,-70.7077383,Santiago,https://maps.gstatic.com/mapfiles/place_api/icons/shopping-71.png,ChIJ_amy2VDHYpYRHcl2M7J_OJE
MultiOutlet,Quilicura,"San Ignacio 101, Quilicura, Región Metropolitana","['shopping_mall', 'point_of_interest', 'establishment']",-33.329523,-70.701566,Santiago,https://maps.gstatic.com/mapfiles/place_api/icons/shopping-71.png,ChIJD_afeFnHYpYRvz0O3kdNq7k
Polo Ralph Lauren,Quilicura,"San Ignacio 500, Quilicura, Región Metropolitana","['shopping_mall', 'point_of_interest', 'establishment']",-33.3311192,-70.7049744,Santiago,https://maps.gstatic.com/mapfiles/place_api/icons/shopping-71.png,ChIJxzcwqFDHYpYRAgjj6GV-ADw
Rittal,Quilicura,"Galvarino 8501, Quilicura, Región Metropolitana","['shopping_mall', 'point_of_interest', 'establishment']",-33.341196,-70.7012422,Santiago,https://maps.gstatic.com/mapfiles/place_api/icons/shopping-71.png,ChIJ25vUhEbHYpYRyuVeQf2OeTE
Outlets,Quilicura,"San Ignacio 532, Quilicura, Región Metropolitana","['shopping_mall', 'point_of_interest', 'establishment']",-33.3315187,-70.7045638,Santiago,https://maps.gstatic.com/mapfiles/place_api/icons/shopping-71.png,ChIJ2wJIr1DHYpYRPT_n0FXpCVg
Nike Factory,Quilicura,"Pdte Eduardo Frei Montalva 9700, Quilicura, Región Metropolitana","['shopping_mall', 'point_of_interest', 'establishment']",-33.3349267,-70.7136609,Santiago,https://maps.gstatic.com/mapfiles/place_api/icons/shopping-71.png,ChIJaWgpVFLHYpYRKDWXldYKtXA
Centro Artesanal Santa Lucia,Santiago,"Santiago, Santiago Metropolitan","['shopping_mall', 'point_of_interest', 'establishment']",-33.4426869,-70.64389299999999,Santiago,https://maps.gstatic.com/mapfiles/place_api/icons/shopping-71.png,ChIJWQPGvJ_FYpYRvEbLji0RT_M
Museo de Autos,Quilicura,"Calle Cañaveral 200, Quilicura, Región Metropolitana","['museum', 'tourist_attraction', 'point_of_interest', 'establishment']",-33.3291004,-70.7279803,Santiago,https://maps.gstatic.com/mapfiles/place_api/icons/museum-71.png,ChIJlfKtHKjAYpYR4i1QzNhFFLQ
"Museo en Ámsterdam, Países Bajos",Quilicura,"Ana Frank, Quilicura, Región Metropolitana","['museum', 'point_of_interest', 'establishment']",-33.3608967,-70.7272472,Santiago,https://maps.gstatic.com/mapfiles/place_api/icons/museum-71.png,ChIJVc7YRnbBYpYReiqLB2VnlRc
Museo Chileno de Arte Precolombino,Santiago,"Bandera 361, Santiago, Región Metropolitana","['museum', 'tourist_attraction', 'point_of_interest', 'establishment']",-33.4389304,-70.6521053,Santiago,https://maps.gstatic.com/mapfiles/place_api/icons/museum-71.png,ChIJ58cpbKTFYpYRw3pfdBEEHEQ
Parroquia Santa Rosa de Lo Barnechea,Lo Barnechea,"Raúl Labbe 13799, Lo Barnechea, RM","['church', 'tourist_attraction', 'place_of_worship', 'point_of_interest', 'establishment']",-33.3616343,-70.5050722,Santiago,https://maps.gstatic.com/mapfiles/place_api/icons/worship_general-71.png,ChIJE4rRcuvLYpYRzva72clSZ8g
Mampato Lo Barnechea,Lo Barnechea,"Av. Raúl Labbé 12150, Lo Barnechea, Región Metropolitana","['amusement_park', 'tourist_attraction', 'point_of_interest', 'establishment']",-33.367207,-70.520087,Santiago,https://maps.gstatic.com/mapfiles/place_api/icons/generic_business-71.png,ChIJJxA9ceTLYpYRw9EJfXIRenk
BikePark RKF El Durazno,Lo Barnechea,"La Dehesa 6501, Lo Barnechea, Región Metropolitana","['park', 'tourist_attraction', 'point_of_interest', 'establishment']",-33.3247947,-70.51160639999999,Santiago,https://maps.gstatic.com/mapfiles/place_api/icons/generic_recreational-71.png,ChIJs6yAdyPKYpYR0PhkS69IDkc
Parque Puente Ñilhue,Lo Barnechea,"Camino A Farellones 20300, Lo Barnechea, Región Metropolitana","['park', 'tourist_attraction', 'point_of_interest', 'establishment']",-33.3722512,-70.4437918,Santiago,https://maps.gstatic.com/mapfiles/place_api/icons/generic_recreational-71.png,ChIJ81AwQsfMYpYRkGROrvr94so
Parque Las Rosas,Lo Barnechea,"Av. Raúl Labbé 14711, Lo Barnechea, Región Metropolitana","['park', 'tourist_attraction', 'point_of_interest', 'establishment']",-33.361958,-70.4970305,Santiago,https://maps.gstatic.com/mapfiles/place_api/icons/generic_recreational-71.png,ChIJafGi_pPLYpYRo3eqBmBo7XI
Centro Cultural El Tranque,Lo Barnechea,"Av. El Tranque 10300, Lo Barnechea, Región Metropolitana","['museum', 'tourist_attraction', 'point_of_interest', 'establishment']",-33.360988,-70.5412199,Santiago,https://maps.gstatic.com/mapfiles/place_api/icons/museum-71.png,ChIJtQFiIWfJYpYRly-5adYHjw4
Parque De La Chilenidad,Lo Barnechea,"Lo Barnechea, Región Metropolitana","['park', 'tourist_attraction', 'point_of_interest', 'establishment']",-33.3561262,-70.49337510000001,Santiago,https://maps.gstatic.com/mapfiles/place_api/icons/generic_recreational-71.png,ChIJQVdj0ZfLYpYRvJLOEOOEhLU
Santuario de la Naturaleza El Arrayán,Lo Barnechea,"Camino El Cajón 21000, Lo Barnechea, Región Metropolitana","['park', 'tourist_attraction', 'point_of_interest', 'establishment']",-33.3289438,-70.45941669999999,Santiago,https://maps.gstatic.com/mapfiles/place_api/icons/generic_recreational-71.png,ChIJCVc7nh7LYpYRL8vgppY-Trs
Museo Interactivo Judio De Chile,Lo Barnechea,"Comandante Malbec 13210, Lo Barnechea, Región Metropolitana","['museum', 'tourist_attraction', 'point_of_interest', 'establishment']",-33.3567425,-70.5132668,Santiago,https://maps.gstatic.com/mapfiles/place_api/icons/museum-71.png,ChIJ5ZoE3cLLYpYRhLGOPed88jM
Cerro Pochoco,Lo Barnechea,"Lo Barnechea, Región Metropolitana","['tourist_attraction', 'park', 'point_of_interest', 'establishment']",-33.3538262,-70.4567465,Santiago,https://maps.gstatic.com/mapfiles/place_api/icons/generic_recreational-71.png,ChIJQUSfP2rLYpYRj7SeCaujjWo
Centro Artesanal Pueblito Los Dominicos,Las Condes,"Apoquindo 9085, Las Condes, Región Metropolitana","['tourist_attraction', 'point_of_interest', 'establishment']",-33.408414,-70.541708,Santiago,https://maps.gstatic.com/mapfiles/place_api/icons/generic_business-71.png,ChIJf2w7OpbOYpYRVIl7ACCtOEY
Mirador de Los Tres Valles,Lo Barnechea,"Camino A Farellones 23700, Lo Barnechea, Región Metropolitana","['tourist_attraction', 'point_of_interest', 'establishment']",-33.3470471,-70.34417049999999,Santiago,https://maps.gstatic.com/mapfiles/place_api/icons/generic_business-71.png,ChIJ33yl3Kk2fZYRfh6XRZfquKw
Sky Costanera,Providencia,"Andrés Bello 2425, Providencia, Región Metropolitana","['tourist_attraction', 'point_of_interest', 'establishment']",-33.4167134,-70.6067386,Santiago,https://maps.gstatic.com/mapfiles/place_api/icons/generic_business-71.png,ChIJN4V0fkLPYpYRm2jflwE_YSA
Yerba Loca,Lo Barnechea,"Curva 15, Ruta G60 21, Santiago, Lo Barnechea, Región Metropolitana","['tourist_attraction', 'park', 'point_of_interest', 'establishment']",-33.3378115,-70.3327839,Santiago,https://maps.gstatic.com/mapfiles/place_api/icons/generic_recreational-71.png,ChIJ8aCHIR00fZYR8-YoM7g2M4Q
Parque Cordillera Yerba Loca,Lo Barnechea,"Lo Barnechea, Región Metropolitana","['tourist_attraction', 'park', 'point_of_interest', 'establishment']",-33.2618534,-70.281793,Santiago,https://maps.gstatic.com/mapfiles/place_api/icons/generic_recreational-71.png,ChIJ2xiFUtE3fZYRwkXxx8fFt_s
Hospital Veterinario Global Vet,Lo Barnechea,"Padre Alfredo Arteaga Barros 1929, Lo Barnechea, Región Metropolitana","['hospital', 'point_of_interest', 'establishment']",-33.3524296,-70.51035270000001,Santiago,https://maps.gstatic.com/mapfiles/place_api/icons/doctor-71.png,ChIJC1VmcsTLYpYRwypRJcMJVgk
Clínica Alemana De La Dehesa,Lo Barnechea,"Av. Jose Alcalde Delano 12205, Lo Barnechea, Región Metropolitana","['hospital', 'point_of_interest', 'establishment']",-33.3553774,-70.5256911,Santiago,https://maps.gstatic.com/mapfiles/place_api/icons/doctor-71.png,ChIJpRutVN_LYpYRphk_1D2V_oU
Clínica MEDS La Dehesa,Lo Barnechea,"Av. Jose Alcalde Delano 10581, Lo Barnechea, Región Metropolitana","['hospital', 'health', 'point_of_interest', 'establishment']",-33.355737,-70.53495199999999,Santiago,https://maps.gstatic.com/mapfiles/place_api/icons/doctor-71.png,ChIJhcZ4SWTJYpYRt0rzTQhLgRk
"Centro Medico - Avenida El Rodeo 11000, Lo Barnechea",Lo Barnechea,"El Rodeo 12699, Lo Barnechea, Región Metropolitana","['hospital', 'point_of_interest', 'establishment']",-33.3534806,-70.521028,Santiago,https://maps.gstatic.com/mapfiles/place_api/icons/doctor-71.png,ChIJAQmUXdnLYpYRIn0bzeuAEZQ
Centro Lector de Lo Barnechea,Lo Barnechea,"Lo Barnechea 1174, Santiago, Lo Barnechea, Región Metropolitana","['library', 'point_of_interest', 'establishment']",-33.3580534,-70.5066107,Santiago,https://maps.gstatic.com/mapfiles/place_api/icons/school-71.png,ChIJ5U8idOrLYpYREY_SPZfoxH8
Mall VIVO Los Trapenses,Lo Barnechea,"Av. Jose Alcalde Delano 10492, Santiago, Lo Barnechea, Región Metropolitana","['shopping_mall', 'point_of_interest', 'establishment']",-33.3564517,-70.53946169999999,Santiago,https://maps.gstatic.com/mapfiles/place_api/icons/shopping-71.png,ChIJaarEO2_JYpYROyZQVlUl0yQ
Portal La Dehesa,Lo Barnechea,"Av. La Dehesa 1445, Lo Barnechea, Región Metropolitana","['shopping_mall', 'point_of_interest', 'establishment']",-33.3575255,-70.5152985,Santiago,https://maps.gstatic.com/mapfiles/place_api/icons/shopping-71.png,ChIJdbqTjefLYpYRIi3uYAi-Zhs
Mall Sport,Lo Barnechea,"Av. las Condes 13451, Las Condes, Lo Barnechea, Región Metropolitana","['shopping_mall', 'car_wash', 'restaurant', 'food', 'gym', 'health', 'point_of_interest', 'store', 'establishment']",-33.3706964,-70.50623329999999,Santiago,https://maps.gstatic.com/mapfiles/place_api/icons/shopping-71.png,ChIJ8eucPfLLYpYRj_s3A9wFook
Espacio Urbano La Dehesa,Lo Barnechea,"El Rodeo 12850, Lo Barnechea, Región Metropolitana","['shopping_mall', 'point_of_interest', 'establishment']",-33.3525276,-70.5207199,Santiago,https://maps.gstatic.com/mapfiles/place_api/icons/shopping-71.png,ChIJRQHR19vLYpYRYAbimOLEgso
Paseo los Trapenses,Lo Barnechea,"Camino Los Trapenses 3515, Lo Barnechea, Región Metropolitana","['shopping_mall', 'point_of_interest', 'establishment']",-33.343535,-70.5445167,Santiago,https://maps.gstatic.com/mapfiles/place_api/icons/shopping-71.png,ChIJI4Fd2HXJYpYR1uthE6H3ZOY
Patio La Dehesa,Lo Barnechea,"Av. Jose Alcalde Delano 10425, Lo Barnechea, Región Metropolitana","['shopping_mall', 'point_of_interest', 'establishment']",-33.3595352,-70.54379279999999,Santiago,https://maps.gstatic.com/mapfiles/place_api/icons/shopping-71.png,ChIJPSZiXGnJYpYR80i0aPGTH3s
Strip Center Small Service,Lo Barnechea,"Santiago, Lo Barnechea, Región Metropolitana","['shopping_mall', 'point_of_interest', 'establishment']",-33.3591141,-70.5177169,Santiago,https://maps.gstatic.com/mapfiles/place_api/icons/shopping-71.png,ChIJD90gg93LYpYRhPVVPyxcwIA
Las Pataguas Paseo,Lo Barnechea,"Av. Jose Alcalde Delano 10682, Lo Barnechea, Región Metropolitana","['shopping_mall', 'point_of_interest', 'establishment']",-33.3551976,-70.5370097,Santiago,https://maps.gstatic.com/mapfiles/place_api/icons/shopping-71.png,ChIJL-eIkGXJYpYRDjmi63YaU9Y
Trek Mall Sport,Lo Barnechea,"Av. las Condes 13451, Las Condes, Lo Barnechea, Región Metropolitana","['shopping_mall', 'point_of_interest', 'establishment']",-33.3702868,-70.5076359,Santiago,https://maps.gstatic.com/mapfiles/place_api/icons/shopping-71.png,ChIJy8S0PfLLYpYRYnNawq-KSKs
1111 grow Lo Barnechea,Lo Barnechea,"Av. las Condes 14791, Las Condes, Lo Barnechea, Región Metropolitana","['shopping_mall', 'point_of_interest', 'establishment']",-33.364222,-70.4946733,Santiago,https://maps.gstatic.com/mapfiles/place_api/icons/shopping-71.png,ChIJu9RkBG_LYpYR9tQFEdAMaWM
Distrito Los Trapenses,Lo Barnechea,"Av. La Dehesa 2035, oficina 11, Lo Barnechea, Región Metropolitana","['shopping_mall', 'point_of_interest', 'establishment']",-33.352152,-70.51812699999999,Santiago,https://maps.gstatic.com/mapfiles/place_api/icons/shopping-71.png,ChIJH2GqYO_LYpYRgsuQ0FNBLvI
Garmin Store,Las Condes,"Av. las Condes 13455-13457, Lo Barnechea, Las Condes, Región Metropolitana","['shopping_mall', 'point_of_interest', 'establishment']",-33.3706994,-70.5061903,Santiago,https://maps.gstatic.com/mapfiles/place_api/icons/shopping-71.png,ChIJCQT7UPLLYpYRvgz2StYllpE
Distribuidora de Pañales Lo Barnechea,Lo Barnechea,"El Gabino 13672, Lo Barnechea, Región Metropolitana","['shopping_mall', 'point_of_interest', 'establishment']",-33.3535136,-70.5087739,Santiago,https://maps.gstatic.com/mapfiles/place_api/icons/shopping-71.png,ChIJO6J-bdLLYpYRJ3ew2g61iFE
Stripcenter Paseo La Cruz,Lo Barnechea,"Lo Barnechea, Región Metropolitana","['shopping_mall', 'point_of_interest', 'establishment']",-33.3466609,-70.5433942,Santiago,https://maps.gstatic.com/mapfiles/place_api/icons/shopping-71.png,ChIJR-w3NSvJYpYR8XwlH1TCN5M
Centro Comercial Puertas del Valle,Lo Barnechea,"Camino Los Trapenses 3023, Santiago, Lo Barnechea, Región Metropolitana","['shopping_mall', 'point_of_interest', 'establishment']",-33.3476455,-70.5422286,Santiago,https://maps.gstatic.com/mapfiles/place_api/icons/shopping-71.png,ChIJiTyDOH_XYpYRUtUL-N2Vzm4
Mall Sport,Las Condes,"Av. las Condes 13451, Las Condes, Región Metropolitana","['shopping_mall', 'point_of_interest', 'establishment']",-33.3704883,-70.50629359999999,Santiago,https://maps.gstatic.com/mapfiles/place_api/icons/shopping-71.png,ChIJ8Ys6tazOYpYR75YovNh9OyE
Museo Interactivo Judio De Chile,Lo Barnechea,"Comandante Malbec 13210, Lo Barnechea, Región Metropolitana","['museum', 'tourist_attraction', 'point_of_interest', 'establishment']",-33.3567425,-70.5132668,Santiago,https://maps.gstatic.com/mapfiles/place_api/icons/museum-71.png,ChIJ5ZoE3cLLYpYRhLGOPed88jM
Centro Cultural El Tranque,Lo Barnechea,"Av. El Tranque 10300, Lo Barnechea, Región Metropolitana","['museum', 'tourist_attraction', 'point_of_interest', 'establishment']",-33.360988,-70.5412199,Santiago,https://maps.gstatic.com/mapfiles/place_api/icons/museum-71.png,ChIJtQFiIWfJYpYRly-5adYHjw4
Museo Chileno de Arte Precolombino,Santiago,"Bandera 361, Santiago, Región Metropolitana","['museum', 'tourist_attraction', 'point_of_interest', 'establishment']",-33.4389304,-70.6521053,Santiago,https://maps.gstatic.com/mapfiles/place_api/icons/museum-71.png,ChIJ58cpbKTFYpYRw3pfdBEEHEQ
La Chascona,Providencia,"Fernando Márquez de La Plata 0192, Santiago, Providencia, Región Metropolitana","['museum', 'tourist_attraction', 'point_of_interest', 'establishment']",-33.4311212,-70.6344175,Santiago,https://maps.gstatic.com/mapfiles/place_api/icons/museum-71.png,ChIJbWHLF5DFYpYRFqGp8hFH-04
Parque Quinta Normal,Santiago,"Matucana 520, Santiago, Región Metropolitana","['tourist_attraction', 'park', 'point_of_interest', 'establishment']",-33.4410758,-70.6827816,Santiago,https://maps.gstatic.com/mapfiles/place_api/icons/generic_recreational-71.png,ChIJ75TMHlDEYpYRFwPIbNFgsOA
Museo Nacional de Historia Natural,Quinta Normal,"Parque, Santiago, Quinta Normal, Región Metropolitana","['tourist_attraction', 'museum', 'point_of_interest', 'establishment']",-33.442005,-70.68171699999999,Santiago,https://maps.gstatic.com/mapfiles/place_api/icons/museum-71.png,ChIJEQzTm1rEYpYR9UxlehkVsus
Parque Fluvial La Familia,Quinta Normal,"Pdte Balmaceda 2874, Quinta Normal, Región Metropolitana","['park', 'tourist_attraction', 'point_of_interest', 'establishment']",-33.4247325,-70.6777448,Santiago,https://maps.gstatic.com/mapfiles/place_api/icons/generic_recreational-71.png,ChIJtQk2aDbEYpYRx9sgVZQO1Ho
Basílica de Lourdes,Santiago,"Santo Domingo 3747, Quinta Normal, Santiago, Región Metropolitana","['tourist_attraction', 'church', 'place_of_worship', 'point_of_interest', 'establishment']",-33.43840369999999,-70.68594530000001,Santiago,https://maps.gstatic.com/mapfiles/place_api/icons/worship_general-71.png,ChIJ-9Z1i0TEYpYRU4ZorMV7VYQ
Parroquia Nuestra Señora de la Medalla Milagrosa,Quinta Normal,"Antonio Ebner 1445, Quinta Normal, Región Metropolitana","['tourist_attraction', 'church', 'place_of_worship', 'point_of_interest', 'establishment']",-33.4329956,-70.696817,Santiago,https://maps.gstatic.com/mapfiles/place_api/icons/worship_general-71.png,ChIJT-HEFWvEYpYRPCSzRUhLIeM
Museo de Ciencia y Tecnología,Santiago,"Matucana 536, Santiago, Región Metropolitana","['tourist_attraction', 'museum', 'point_of_interest', 'establishment']",-33.4400949,-70.6835414,Santiago,https://maps.gstatic.com/mapfiles/place_api/icons/museum-71.png,ChIJtboMF1DEYpYRz_q5ZudWOcg
Museo de la Memoria y los Derechos Humanos,Santiago,"Matucana 501, Santiago, Región Metropolitana","['tourist_attraction', 'museum', 'point_of_interest', 'establishment']",-33.4397477,-70.6794027,Santiago,https://maps.gstatic.com/mapfiles/place_api/icons/museum-71.png,ChIJvxNn30_EYpYRIRHves_-AVU
MAC Quinta Normal,Santiago,"Matucana 464, Santiago, Región Metropolitana","['museum', 'tourist_attraction', 'point_of_interest', 'establishment']",-33.442154,-70.6805735,Santiago,https://maps.gstatic.com/mapfiles/place_api/icons/museum-71.png,ChIJ-VVtQIfFYpYRoHrZHHl6E7A
Parque de los Reyes,Santiago,"Pdte Balmaceda, Santiago, Región Metropolitana","['park', 'tourist_attraction', 'point_of_interest', 'establishment']",-33.429199,-70.6665218,Santiago,https://maps.gstatic.com/mapfiles/place_api/icons/generic_recreational-71.png,ChIJzQz1pLXFYpYRzXDv9a6Plec
Museo de La Educación Gabriela Mistral,Santiago,"Chacabuco 365, Santiago, Región Metropolitana","['museum', 'tourist_attraction', 'point_of_interest', 'establishment']",-33.441599,-70.678586,Santiago,https://maps.gstatic.com/mapfiles/place_api/icons/museum-71.png,ChIJXfvFU1DEYpYR6MSMbQUj0Xs
Sky Costanera,Providencia,"Andrés Bello 2425, Providencia, Región Metropolitana","['tourist_attraction', 'point_of_interest', 'establishment']",-33.4167134,-70.6067386,Santiago,https://maps.gstatic.com/mapfiles/place_api/icons/generic_business-71.png,ChIJN4V0fkLPYpYRm2jflwE_YSA
Hospital Félix Bulnes,Quinta Normal,"Av Costanera Sur 2596, Quinta Normal, Región Metropolitana","['hospital', 'point_of_interest', 'establishment']",-33.415403,-70.69467259999999,Santiago,https://maps.gstatic.com/mapfiles/place_api/icons/doctor-71.png,ChIJwbZ1Jx_EYpYR_ZpHNw1GvRA
Hospital San Juan de Dios,Santiago,"Huérfanos 3255, Santiago, Región Metropolitana","['hospital', 'point_of_interest', 'establishment']",-33.44238199999999,-70.6790012,Santiago,https://maps.gstatic.com/mapfiles/place_api/icons/doctor-71.png,ChIJwWTN_lDEYpYRF9diEhDR08g
Municipalidad de Quinta Normal,Quinta Normal,"Carrascal 4447, Quinta Normal, Región Metropolitana","['city_hall', 'local_government_office', 'point_of_interest', 'establishment']",-33.4226317,-70.6933948,Santiago,https://maps.gstatic.com/mapfiles/place_api/icons/civic_building-71.png,ChIJN1Z93hXEYpYRnQ-0RVAY9cM
Biblioteca Pública Quinta Normal,Quinta Normal,"Radal 1693 & Padre Tadeo, Quinta Normal, Región Metropolitana","['library', 'point_of_interest', 'establishment']",-33.4275509,-70.7035604,Santiago,https://maps.gstatic.com/mapfiles/place_api/icons/school-71.png,ChIJLYyI9RHEYpYRfr8X1tZ8plM
Biblioteca de Santiago,Santiago,"Matucana 151, Santiago, Región Metropolitana","['library', 'point_of_interest', 'establishment']",-33.4445793,-70.6791167,Santiago,https://maps.gstatic.com/mapfiles/place_api/icons/school-71.png,ChIJ8y03z1DEYpYR0O8Ei8PYvCM
Bibliometro,Santiago,"Matucana, Santiago, Región Metropolitana","['library', 'point_of_interest', 'establishment']",-33.4404584,-70.680315,Santiago,https://maps.gstatic.com/mapfiles/place_api/icons/school-71.png,ChIJ4y2XHFDEYpYRqcrdxcc4LqY
Centro Artesanal Santa Lucia,Santiago,"Santiago, Santiago Metropolitan","['shopping_mall', 'point_of_interest', 'establishment']",-33.4426869,-70.64389299999999,Santiago,https://maps.gstatic.com/mapfiles/place_api/icons/shopping-71.png,ChIJWQPGvJ_FYpYRvEbLji0RT_M
Imperio Games,Santiago,"Chacabuco 787, Santiago, Región Metropolitana","['shopping_mall', 'point_of_interest', 'establishment']",-33.4359608,-70.6789912,Santiago,https://maps.gstatic.com/mapfiles/place_api/icons/shopping-71.png,ChIJVxQwEU_EYpYRNgMFWFtD1gA
Mall VIVO El Centro,Santiago,"Paseo Puente 689, Santiago, Región Metropolitana","['shopping_mall', 'point_of_interest', 'establishment']",-33.4351985,-70.6507637,Santiago,https://maps.gstatic.com/mapfiles/place_api/icons/shopping-71.png,ChIJ5fcWVbvFYpYRvVxovGY8XTQ
Mall Espacio M,Santiago,"Compañía de Jesús 1214, Santiago, Región Metropolitana","['shopping_mall', 'point_of_interest', 'establishment']",-33.4390874,-70.6541864,Santiago,https://maps.gstatic.com/mapfiles/place_api/icons/shopping-71.png,ChIJwZ2JTaTFYpYRkoA3P8I1CDo
Patio Bellavista,Providencia,"Bellavista, Providencia, Región Metropolitana","['shopping_mall', 'point_of_interest', 'establishment']",-33.4342079,-70.63497219999999,Santiago,https://maps.gstatic.com/mapfiles/place_api/icons/shopping-71.png,ChIJJa8lBEHFYpYRzlf94u7FVE0
Rd Las Americas,Santiago,"Enrique Meiggs 90, Santiago, Región Metropolitana","['shopping_mall', 'point_of_interest', 'clothing_store', 'store', 'establishment']",-33.45199,-70.67690019999999,Santiago,https://maps.gstatic.com/mapfiles/place_api/icons/shopping-71.png,ChIJZ-b-6PjEYpYRIuNqPD6KPeQ
Mall. Del Centro,Santiago,"Paseo Puente 689, Santiago, Región Metropolitana","['shopping_mall', 'point_of_interest', 'establishment']",-33.4353069,-70.6508444,Santiago,https://maps.gstatic.com/mapfiles/place_api/icons/shopping-71.png,ChIJwc5VUqPFYpYROmZZ26rtVoI
Mall Costanera,Providencia,"Andrés Bello 2425, Providencia, Región Metropolitana","['shopping_mall', 'point_of_interest', 'establishment']",-33.4178955,-70.60753249999999,Santiago,https://maps.gstatic.com/mapfiles/place_api/icons/shopping-71.png,ChIJCacvhULPYpYRL-hmoN8b77o
Mall Chino,Santiago,"Padre Alonso de Ovalle 1065, Santiago, Región Metropolitana","['shopping_mall', 'point_of_interest', 'establishment']",-33.4463762,-70.6505261,Santiago,https://maps.gstatic.com/mapfiles/place_api/icons/shopping-71.png,ChIJ_32DqqDFYpYR28bVqccWokQ
Mall Arauco Quilicura,Quilicura,"Av. Bernardo O'Higgins 581, Quilicura, Región Metropolitana","['shopping_mall', 'point_of_interest', 'establishment']",-33.3683552,-70.7300176,Santiago,https://maps.gstatic.com/mapfiles/place_api/icons/shopping-71.png,ChIJs0_dJrjAYpYRcNBIAVe1rZE
Persa Bio - Bio,Santiago,"Bío Bío 793, Santiago, Región Metropolitana","['shopping_mall', 'point_of_interest', 'establishment']",-33.4738346,-70.6435003,Santiago,https://maps.gstatic.com/mapfiles/place_api/icons/shopping-71.png,ChIJSRwzDEfFYpYRChfICQUaPQ4
Patio Bellavista - Panorama Urbano,Providencia,"Constitución 53, Providencia, Región Metropolitana","['shopping_mall', 'bar', 'restaurant', 'food', 'point_of_interest', 'establishment']",-33.4337829,-70.6345049,Santiago,https://maps.gstatic.com/mapfiles/place_api/icons/shopping-71.png,ChIJ-wMrqLLFYpYR4oMmJkM--vs
Mall Plaza Egaña,La Reina,"Av. Larrain 5862, La Reina, Región Metropolitana","['shopping_mall', 'point_of_interest', 'establishment']",-33.4523407,-70.5694987,Santiago,https://maps.gstatic.com/mapfiles/place_api/icons/shopping-71.png,ChIJk_9sOUrOYpYRA6Arf_OmqD0
Easton Outlet Mall,Quilicura,"Pdte Eduardo Frei Montalva, Quilicura, Región Metropolitana","['shopping_mall', 'point_of_interest', 'establishment']",-33.3346543,-70.71235899999999,Santiago,https://maps.gstatic.com/mapfiles/place_api/icons/shopping-71.png,ChIJ6-A5HEzHYpYR6FpaJ_wvLx4
Casacostanera,Vitacura,"Nueva Costanera 3900, Vitacura, Región Metropolitana","['shopping_mall', 'lodging', 'point_of_interest', 'establishment']",-33.3984818,-70.598562,Santiago,https://maps.gstatic.com/mapfiles/place_api/icons/shopping-71.png,ChIJf1_KckrPYpYRnmQts-8Uaok
Museo Nacional de Historia Natural,Quinta Normal,"Parque, Santiago, Quinta Normal, Región Metropolitana","['tourist_attraction', 'museum', 'point_of_interest', 'establishment']",-33.442005,-70.68171699999999,Santiago,https://maps.gstatic.com/mapfiles/place_api/icons/museum-71.png,ChIJEQzTm1rEYpYR9UxlehkVsus
MAC Quinta Normal,Santiago,"Matucana 464, Santiago, Región Metropolitana","['museum', 'tourist_attraction', 'point_of_interest', 'establishment']",-33.442154,-70.6805735,Santiago,https://maps.gstatic.com/mapfiles/place_api/icons/museum-71.png,ChIJ-VVtQIfFYpYRoHrZHHl6E7A
Museo de Ciencia y Tecnología,Santiago,"Matucana 536, Santiago, Región Metropolitana","['tourist_attraction', 'museum', 'point_of_interest', 'establishment']",-33.4400949,-70.6835414,Santiago,https://maps.gstatic.com/mapfiles/place_api/icons/museum-71.png,ChIJtboMF1DEYpYRz_q5ZudWOcg
Museo de la Memoria y los Derechos Humanos,Santiago,"Matucana 501, Santiago, Región Metropolitana","['tourist_attraction', 'museum', 'point_of_interest', 'establishment']",-33.4397477,-70.6794027,Santiago,https://maps.gstatic.com/mapfiles/place_api/icons/museum-71.png,ChIJvxNn30_EYpYRIRHves_-AVU
Museo de La Educación Gabriela Mistral,Santiago,"Chacabuco 365, Santiago, Región Metropolitana","['museum', 'tourist_attraction', 'point_of_interest', 'establishment']",-33.441599,-70.678586,Santiago,https://maps.gstatic.com/mapfiles/place_api/icons/museum-71.png,ChIJXfvFU1DEYpYR6MSMbQUj0Xs
Museo de la Memoria,Santiago,"Matucana 501, Santiago, Región Metropolitana","['museum', 'movie_theater', 'point_of_interest', 'establishment']",-33.4402799,-70.6802745,Santiago,https://maps.gstatic.com/mapfiles/place_api/icons/museum-71.png,ChIJtxtyG1DEYpYRDX1cST70vE0
Museo Chileno de Arte Precolombino,Santiago,"Bandera 361, Santiago, Región Metropolitana","['museum', 'tourist_attraction', 'point_of_interest', 'establishment']",-33.4389304,-70.6521053,Santiago,https://maps.gstatic.com/mapfiles/place_api/icons/museum-71.png,ChIJ58cpbKTFYpYRw3pfdBEEHEQ
Estadio Esparta,Quinta Normal,"Augusto Matte 2355, Quinta Normal, Región Metropolitana","['stadium', 'point_of_interest', 'establishment']",-33.4205664,-70.68979259999999,Santiago,https://maps.gstatic.com/mapfiles/place_api/icons/generic_business-71.png,ChIJldxFHT3EYpYR0-n1bhPH3a4
Open Plaza El Bosque,El Bosque,"Gran Avenida Jose Miguel Carrera 10375, El Bosque, Región Metropolitana","['shopping_mall', 'point_of_interest', 'establishment']",-33.5535969,-70.6770414,Santiago,https://maps.gstatic.com/mapfiles/place_api/icons/shopping-71.png,ChIJZxUox7bbYpYRt-GQ_vpoAqo
Feria Libre Los Carolinos,El Bosque,"Los Carolinos 587, El Bosque, Región Metropolitana","['shopping_mall', 'point_of_interest', 'establishment']",-33.5723302,-70.6792143,Santiago,https://maps.gstatic.com/mapfiles/place_api/icons/shopping-71.png,ChIJccuX8dDbYpYR_sOqIbUp4_U
Centro Artesanal Santa Lucia,Santiago,"Santiago, Santiago Metropolitan","['shopping_mall', 'point_of_interest', 'establishment']",-33.4426869,-70.64389299999999,Santiago,https://maps.gstatic.com/mapfiles/place_api/icons/shopping-71.png,ChIJWQPGvJ_FYpYRvEbLji0RT_M
Estadio Lo Blanco,El Bosque,"Lo Blanco 550, El Bosque, Región Metropolitana","['stadium', 'point_of_interest', 'establishment']",-33.5802083,-70.6819407,Santiago,https://maps.gstatic.com/mapfiles/place_api/icons/generic_business-71.png,ChIJQdRyCNjbYpYRuJZwB-lL7IE
Estadio Reinaldo Martín Müller,El Bosque,"Gran Avenida Jose Miguel Carrera 11478, El Bosque, Región Metropolitana","['stadium', 'point_of_interest', 'establishment']",-33.5595406,-70.68103599999999,Santiago,https://maps.gstatic.com/mapfiles/place_api/icons/generic_business-71.png,ChIJt-eWCcjbYpYRmfyTIn1E75M
Parque Violeta Parra,Lo Espejo,"Pdte Adolfo López Mateo 1501, Lo Espejo, Región Metropolitana","['park', 'tourist_attraction', 'point_of_interest', 'establishment']",-33.5219096,-70.6777686,Santiago,https://maps.gstatic.com/mapfiles/place_api/icons/generic_recreational-71.png,ChIJLwCQthvbYpYRclJTfrmVODk
Diakisis Lo Espejo,Lo Espejo,"Tehuantepec 7532, Lo Espejo, Región Metropolitana","['hospital', 'point_of_interest', 'establishment']",-33.5174203,-70.6842049,Santiago,https://maps.gstatic.com/mapfiles/place_api/icons/doctor-71.png,ChIJrSy5ShbbYpYRerHu3cLEz5A
Cesfam Clara Estrella,Lo Espejo,"Zapiga 1739, Lo Espejo, Región Metropolitana","['hospital', 'point_of_interest', 'establishment']",-33.5147209,-70.67589509999999,Santiago,https://maps.gstatic.com/mapfiles/place_api/icons/doctor-71.png,ChIJXWQRqBjbYpYRhuR7qcYys7E
Persa Automotriz 2.0,Lo Espejo,"Guadalupe 8300, Lo Espejo, Región Metropolitana","['shopping_mall', 'point_of_interest', 'establishment']",-33.5237744,-70.69595790000001,Santiago,https://maps.gstatic.com/mapfiles/place_api/icons/shopping-71.png,ChIJe6lWHsnbYpYRipP-eLGcDSA
Museo Chileno de Arte Precolombino,Santiago,"Bandera 361, Santiago, Región Metropolitana","['museum', 'tourist_attraction', 'point_of_interest', 'establishment']",-33.4389304,-70.6521053,Santiago,https://maps.gstatic.com/mapfiles/place_api/icons/museum-71.png,ChIJ58cpbKTFYpYRw3pfdBEEHEQ
La Chascona,Providencia,"Fernando Márquez de La Plata 0192, Santiago, Providencia, Región Metropolitana","['museum', 'tourist_attraction', 'point_of_interest', 'establishment']",-33.4311212,-70.6344175,Santiago,https://maps.gstatic.com/mapfiles/place_api/icons/museum-71.png,ChIJbWHLF5DFYpYRFqGp8hFH-04
Cancha los 56 Unidos,Lo Espejo,"Pasaje 24 Sur, Santiago, Lo Espejo, Región Metropolitana","['stadium', 'point_of_interest', 'establishment']",-33.5173718,-70.6950549,Santiago,https://maps.gstatic.com/mapfiles/place_api/icons/generic_business-71.png,ChIJ7bsdJEDbYpYRw15LVrxvnsM
Barrio La Chimba Recoleta,Recoleta,"270, Av. Recoleta 16, Recoleta, Región Metropolitana","['tourist_attraction', 'point_of_interest', 'establishment']",-33.4304265,-70.6474758,Santiago,https://maps.gstatic.com/mapfiles/place_api/icons/generic_business-71.png,ChIJoWQ1wb3FYpYR5Uq9KAm8g8M
La Bicicleta Verde,Recoleta,"Loreto 6, office 1, Recoleta, Región Metropolitana","['travel_agency', 'tourist_attraction', 'point_of_interest', 'establishment']",-33.4338169,-70.6428474,Santiago,https://maps.gstatic.com/mapfiles/place_api/icons/generic_business-71.png,ChIJnZMvKpjFYpYR6yi4ikCqzzY
Cementerio General,Santiago,"Prof. Zañartu 951, Recoleta, Santiago, Región Metropolitana","['cemetery', 'tourist_attraction', 'point_of_interest', 'establishment']",-33.4145174,-70.6490896,Santiago,https://maps.gstatic.com/mapfiles/place_api/icons/cemetery_grave-71.png,ChIJBRYFdcTFYpYRxf1au__xJ-U
Centro Patrimonial Recoleta Dominica,Recoleta,"Av. Recoleta, Santiago, Recoleta, Región Metropolitana","['museum', 'tourist_attraction', 'point_of_interest', 'establishment']",-33.4246747,-70.6444985,Santiago,https://maps.gstatic.com/mapfiles/place_api/icons/museum-71.png,ChIJxZX7WZXFYpYRy7EWWlJBxVA
Parque Bicentenario De La Infancia,Recoleta,"Avenida Perú con Delfín León, Av. Perú, Recoleta, Región Metropolitana","['tourist_attraction', 'park', 'point_of_interest', 'establishment']",-33.418957,-70.6398033,Santiago,https://maps.gstatic.com/mapfiles/place_api/icons/generic_recreational-71.png,ChIJ3aWgaevFYpYRULgseWAl5mg
La Chascona,Providencia,"Fernando Márquez de La Plata 0192, Santiago, Providencia, Región Metropolitana","['museum', 'tourist_attraction', 'point_of_interest', 'establishment']",-33.4311212,-70.6344175,Santiago,https://maps.gstatic.com/mapfiles/place_api/icons/museum-71.png,ChIJbWHLF5DFYpYRFqGp8hFH-04
Sky Costanera,Providencia,"Andrés Bello 2425, Providencia, Región Metropolitana","['tourist_attraction', 'point_of_interest', 'establishment']",-33.4167134,-70.6067386,Santiago,https://maps.gstatic.com/mapfiles/place_api/icons/generic_business-71.png,ChIJN4V0fkLPYpYRm2jflwE_YSA
Instituto Psiquiátrico Dr. José Horwitz Barak,Recoleta,"La Paz 841, Santiago, Recoleta, Región Metropolitana","['hospital', 'health', 'point_of_interest', 'establishment']",-33.4228217,-70.6508485,Santiago,https://maps.gstatic.com/mapfiles/place_api/icons/doctor-71.png,ChIJMdtUicDFYpYR76qbZkbOa1c
Hospital Universidad De Chile,Recoleta,"Santos Dumont, Recoleta, Región Metropolitana","['hospital', 'point_of_interest', 'establishment']",-33.4203956,-70.6531437,Santiago,https://maps.gstatic.com/mapfiles/place_api/icons/doctor-71.png,ChIJm29nv-rFYpYR8FL1_YyhaKE
Clínica Dávila,Recoleta,"Calle Patronato 344, Recoleta, Región Metropolitana","['hospital', 'point_of_interest', 'establishment']",-33.4275246,-70.6468095,Santiago,https://maps.gstatic.com/mapfiles/place_api/icons/doctor-71.png,ChIJv4q2FZbFYpYRDnPB1ytmJOI
Clínica Psiquiátrica de la Universidad de Chile,Recoleta,"La Paz 1009, Recoleta, Región Metropolitana","['hospital', 'point_of_interest', 'establishment']",-33.4199093,-70.6496788,Santiago,https://maps.gstatic.com/mapfiles/place_api/icons/doctor-71.png,ChIJZXika8HFYpYRv__rBlCTEqk
"Universidad San Sebastián, Sede Bellavista",Recoleta,"Recoleta Providencia, Bellavista 7, Recoleta, Región Metropolitana","['university', 'point_of_interest', 'establishment']",-33.4340757,-70.6360748,Santiago,https://maps.gstatic.com/mapfiles/place_api/icons/school-71.png,ChIJf-RN2gvFYpYRVP87Dpzt25U
Biblioteca Municipal Pedro Lemebel,Recoleta,"Inocencia 2705, Recoleta, Región Metropolitana","['library', 'point_of_interest', 'establishment']",-33.4019783,-70.64195140000001,Santiago,https://maps.gstatic.com/mapfiles/place_api/icons/school-71.png,ChIJm1nU0eHFYpYRpd4EW9OMK4E
Museo de Artes Decorativas,Recoleta,"Av. Recoleta 683, Recoleta, Región Metropolitana","['museum', 'tourist_attraction', 'point_of_interest', 'establishment']",-33.4246287,-70.6451093,Santiago,https://maps.gstatic.com/mapfiles/place_api/icons/museum-71.png,ChIJr3tqXJXFYpYRgMCO3jM8Rsk
Centro Patrimonial Recoleta Dominica,Recoleta,"Av. Recoleta, Santiago, Recoleta, Región Metropolitana","['museum', 'tourist_attraction', 'point_of_interest', 'establishment']",-33.4246747,-70.6444985,Santiago,https://maps.gstatic.com/mapfiles/place_api/icons/museum-71.png,ChIJxZX7WZXFYpYRy7EWWlJBxVA
Biblioteca Patrimonial Recoleta Domínica,Recoleta,"683, Recoleta, Región Metropolitana","['library', 'museum', 'point_of_interest', 'establishment']",-33.4244583,-70.6449674,Santiago,https://maps.gstatic.com/mapfiles/place_api/icons/museum-71.png,ChIJ6RtdX5XFYpYRwN-DJUCkTa0
La Chascona,Providencia,"Fernando Márquez de La Plata 0192, Santiago, Providencia, Región Metropolitana","['museum', 'tourist_attraction', 'point_of_interest', 'establishment']",-33.4311212,-70.6344175,Santiago,https://maps.gstatic.com/mapfiles/place_api/icons/museum-71.png,ChIJbWHLF5DFYpYRFqGp8hFH-04
Estadio Popular de Recoleta Leonel Sánchez,Recoleta,"Av. Recoleta N° 3005, Recoleta, Región Metropolitana","['stadium', 'point_of_interest', 'establishment']",-33.3995484,-70.6413836,Santiago,https://maps.gstatic.com/mapfiles/place_api/icons/generic_business-71.png,ChIJK7CSQwrGYpYRrXBpzi39c6Y
Hospital Clínico Mutual de Seguridad,Estación Central,"Av Libertador Bernardo O'Higgins 4848, Santiago, Estación Central, Región Metropolitana","['hospital', 'point_of_interest', 'establishment']",-33.4565408,-70.7007898,Santiago,https://maps.gstatic.com/mapfiles/place_api/icons/doctor-71.png,ChIJZXy3WYjEYpYRlW_DrqKPEt0
Clínica RedSalud Santiago,Estación Central,"Av Libertador Bernardo O'Higgins 4850, Santiago, Estación Central, Región Metropolitana","['hospital', 'health', 'point_of_interest', 'establishment']",-33.4574432,-70.7016232,Santiago,https://maps.gstatic.com/mapfiles/place_api/icons/doctor-71.png,ChIJJ3_79ojEYpYRAXns6LbUkl0
Hospital de Urgencia Asistencia Pública,Santiago,"Curicó 345, Santiago, Región Metropolitana","['hospital', 'point_of_interest', 'establishment']",-33.4436892,-70.6379906,Santiago,https://maps.gstatic.com/mapfiles/place_api/icons/doctor-71.png,ChIJe-Ejip3FYpYRUw0ILXsb0vc
Hospital San Juan de Dios,Santiago,"Huérfanos 3255, Santiago, Región Metropolitana","['hospital', 'point_of_interest', 'establishment']",-33.44238199999999,-70.6790012,Santiago,https://maps.gstatic.com/mapfiles/place_api/icons/doctor-71.png,ChIJwWTN_lDEYpYRF9diEhDR08g
Santo Tomas Estación Central,Santiago,"Exposición 85, Santiago, Región Metropolitana","['university', 'point_of_interest', 'establishment']",-33.4521332,-70.6781409,Santiago,https://maps.gstatic.com/mapfiles/place_api/icons/school-71.png,ChIJjcwZ9_jEYpYRC_jodwfqfls
Universidad de Santiago de Chile,Estación Central,"Av Libertador Bernardo O'Higgins, Estación Central, Región Metropolitana","['university', 'point_of_interest', 'establishment']",-33.4495902,-70.6801949,Santiago,https://maps.gstatic.com/mapfiles/place_api/icons/school-71.png,ChIJWzwH8lfEYpYRMxGnn6A2JDI
Departamento de Física - USACH,Estación Central,"Av. Ecuador 3493, Santiago, Estación Central, Región Metropolitana","['university', 'point_of_interest', 'establishment']",-33.4505322,-70.6838652,Santiago,https://maps.gstatic.com/mapfiles/place_api/icons/school-71.png,ChIJ55k3Y1jEYpYRdmSz69Pwn78
Escuela de Artes y Oficios,Estación Central,"El Belloto 3735, Santiago, Estación Central, Región Metropolitana","['university', 'point_of_interest', 'establishment']",-33.4501853,-70.6862893,Santiago,https://maps.gstatic.com/mapfiles/place_api/icons/school-71.png,ChIJ5enMx1jEYpYR4G_uYI5p-18
Universidad de Santiago de Chile,Estación Central,"Av Libertador Bernardo O'Higgins, Estación Central, Región Metropolitana","['university', 'point_of_interest', 'establishment']",-33.4495902,-70.6801949,Santiago,https://maps.gstatic.com/mapfiles/place_api/icons/school-71.png,ChIJWzwH8lfEYpYRMxGnn6A2JDI
Biblioteca Central Usach,Estación Central,"Enrique Kirberg 4, Santiago, Estación Central, Región Metropolitana","['university', 'library', 'point_of_interest', 'establishment']",-33.450303,-70.683266,Santiago,https://maps.gstatic.com/mapfiles/place_api/icons/school-71.png,ChIJB9EJb1jEYpYRImOpyko3_YA
Mallplaza Alameda,Estación Central,"Av Libertador Bernardo O'Higgins 3470, Santiago, Estación Central, Región Metropolitana","['shopping_mall', 'point_of_interest', 'establishment']",-33.4526695,-70.6822883,Santiago,https://maps.gstatic.com/mapfiles/place_api/icons/shopping-71.png,ChIJbY08lPfEYpYRVqkuIxQU-L8
Guiñazu Paseo Arauco Estacion,Estación Central,"Lib. Bdo. O`HIGGINS 3156, Santiago, Estación Central, Región Metropolitana","['shopping_mall', 'finance', 'point_of_interest', 'establishment']",-33.4518973,-70.67992679999999,Santiago,https://maps.gstatic.com/mapfiles/place_api/icons/generic_business-71.png,ChIJh_eDEvjEYpYRjr3Sxn7NE0M
Tienda Toois,Estación Central,"Garland 89, Local 217, Santiago, Estación Central, Región Metropolitana","['shopping_mall', 'point_of_interest', 'establishment']",-33.4515315,-70.6776112,Santiago,https://maps.gstatic.com/mapfiles/place_api/icons/shopping-71.png,ChIJvfUqjfjEYpYRqddO4lDaSiM
Centro Comercial Persa Estación,Estación Central,"Av Libertador Bernardo O'Higgins 3410, Santiago, Estación Central, Región Metropolitana","['shopping_mall', 'point_of_interest', 'establishment']",-33.452748,-70.68086439999999,Santiago,https://maps.gstatic.com/mapfiles/place_api/icons/shopping-71.png,ChIJz7HBIfjEYpYRzeUj48sAV4A
Paseo Arauco Estación,Estación Central,"Av Libertador Bernardo O'Higgins 3250, Santiago, Estación Central, Región Metropolitana","['shopping_mall', 'point_of_interest', 'establishment']",-33.4522129,-70.67971039999999,Santiago,https://maps.gstatic.com/mapfiles/place_api/icons/shopping-71.png,ChIJHTN8cvTFYpYRJuX8e4_cbfE
Galeria Dragon De Oro,Estación Central,"Santiago, Estación Central, Región Metropolitana","['shopping_mall', 'point_of_interest', 'establishment']",-33.4505671,-70.67611529999999,Santiago,https://maps.gstatic.com/mapfiles/place_api/icons/shopping-71.png,ChIJBYDLpPfEYpYRCZjMpGSgfZY
Mall Costanera,Providencia,"Andrés Bello 2425, Providencia, Región Metropolitana","['shopping_mall', 'point_of_interest', 'establishment']",-33.4178955,-70.60753249999999,Santiago,https://maps.gstatic.com/mapfiles/place_api/icons/shopping-71.png,ChIJCacvhULPYpYRL-hmoN8b77o
Mall Plaza Lila,Santiago,"Salvador Sanfuentes 2647, Santiago, Región Metropolitana","['shopping_mall', 'point_of_interest', 'establishment']",-33.4509896,-70.67331519999999,Santiago,https://maps.gstatic.com/mapfiles/place_api/icons/shopping-71.png,ChIJYfIOE__EYpYR6yoG0GeheHQ
Mall Chino,Santiago,"Padre Alonso de Ovalle 1065, Santiago, Región Metropolitana","['shopping_mall', 'point_of_interest', 'establishment']",-33.4463762,-70.6505261,Santiago,https://maps.gstatic.com/mapfiles/place_api/icons/shopping-71.png,ChIJ_32DqqDFYpYR28bVqccWokQ
Casa Amarilla Portal Edwards,Santiago,"Av Libertador Bernardo O'Higgins 2702, Santiago, Región Metropolitana","['shopping_mall', 'point_of_interest', 'establishment']",-33.4503413,-70.67500249999999,Santiago,https://maps.gstatic.com/mapfiles/place_api/icons/shopping-71.png,ChIJT5lXV__EYpYRjjP8-WAYF3s
Nuevo mall chino,Santiago,"Sazié 2930, Santiago, Región Metropolitana","['shopping_mall', 'point_of_interest', 'establishment']",-33.452829,-70.676317,Santiago,https://maps.gstatic.com/mapfiles/place_api/icons/shopping-71.png,ChIJvYAyIvnEYpYR4mecVKud_bk
Mall Universo Chino Alameda,Santiago,"Avenida Liber Bernardo O'higgins 2939, Santiago, Región Metropolitana","['shopping_mall', 'point_of_interest', 'establishment']",-33.449476,-70.675061,Santiago,https://maps.gstatic.com/mapfiles/place_api/icons/shopping-71.png,ChIJy_7W_VXEYpYR3t--82UvEcw
CRAZY OUTLET,Santiago,"San Alfonso 562, Santiago, Región Metropolitana","['supermarket', 'shopping_mall', 'grocery_or_supermarket', 'food', 'point_of_interest', 'store', 'establishment']",-33.4567766,-70.6751807,Santiago,https://maps.gstatic.com/mapfiles/place_api/icons/shopping-71.png,ChIJ4eaxivvEYpYR59lz5zpHNLE
Mall Parma,Santiago,"Santiago, Región Metropolitana","['shopping_mall', 'point_of_interest', 'establishment']",-33.4538982,-70.6761016,Santiago,https://maps.gstatic.com/mapfiles/place_api/icons/shopping-71.png,ChIJZ8hROPnEYpYRTfKshgN94hI
Parque Arauco,Las Condes,"Av Presidente Kennedy 5413, Las Condes, Región Metropolitana","['shopping_mall', 'point_of_interest', 'establishment']",-33.4021934,-70.57824939999999,Santiago,https://maps.gstatic.com/mapfiles/place_api/icons/shopping-71.png,ChIJRwJopCjPYpYRFLSKf8FBgSc
Museo Colección Jedimar,Estación Central,"San Francisco de Borja 1240, Santiago, Estación Central, Región Metropolitana","['museum', 'tourist_attraction', 'point_of_interest', 'establishment']",-33.4646107,-70.6807757,Santiago,https://maps.gstatic.com/mapfiles/place_api/icons/museum-71.png,ChIJY9AchOXEYpYRG07D-ggL_Qc
SAR YAZIGI (URGENCIAS),Lo Prado,"Caleta Iquique 214, Lo Prado, Región Metropolitana","['hospital', 'point_of_interest', 'establishment']",-33.451803,-70.715487,Santiago,https://maps.gstatic.com/mapfiles/place_api/icons/doctor-71.png,ChIJFyEJR3_EYpYRMMUHGB-c_0g
veterinaria San Vicente,Renca,"Av. Brasil 7792, Renca, Región Metropolitana","['hospital', 'point_of_interest', 'establishment']",-33.3989199,-70.74777879999999,Santiago,https://maps.gstatic.com/mapfiles/place_api/icons/doctor-71.png,ChIJESaA7JLBYpYRTb49VfIx97Y
Municipalidad de Renca,Renca,"Blanco Encalada 1335, Renca, Región Metropolitana","['city_hall', 'local_government_office', 'point_of_interest', 'establishment']",-33.4045125,-70.7041665,Santiago,https://maps.gstatic.com/mapfiles/place_api/icons/civic_building-71.png,ChIJcZa6kqXGYpYRaGIcznGmaac
INACAP sede Renca,Renca,"Bravo de Saravia 2980, Renca, Región Metropolitana","['university', 'point_of_interest', 'establishment']",-33.405348,-70.6826552,Santiago,https://maps.gstatic.com/mapfiles/place_api/icons/school-71.png,ChIJ213SOp3GYpYRNvYx9rY6n7I
"Colegio Andes, DUOC UC",Renca,"Av. Domingo Sta. María 3640, Renca, Región Metropolitana","['university', 'school', 'point_of_interest', 'establishment']",-33.40846,-70.69572000000001,Santiago,https://maps.gstatic.com/mapfiles/place_api/icons/school-71.png,ChIJKTuJXqDGYpYRic6iz3bQ2pk
Centro Artesanal Santa Lucia,Santiago,"Santiago, Santiago Metropolitan","['shopping_mall', 'point_of_interest', 'establishment']",-33.4426869,-70.64389299999999,Santiago,https://maps.gstatic.com/mapfiles/place_api/icons/shopping-71.png,ChIJWQPGvJ_FYpYRvEbLji0RT_M
Museo Chileno de Arte Precolombino,Santiago,"Bandera 361, Santiago, Región Metropolitana","['museum', 'tourist_attraction', 'point_of_interest', 'establishment']",-33.4389304,-70.6521053,Santiago,https://maps.gstatic.com/mapfiles/place_api/icons/museum-71.png,ChIJ58cpbKTFYpYRw3pfdBEEHEQ
Museo Nacional de Historia Natural,Quinta Normal,"Parque, Santiago, Quinta Normal, Región Metropolitana","['tourist_attraction', 'museum', 'point_of_interest', 'establishment']",-33.442005,-70.68171699999999,Santiago,https://maps.gstatic.com/mapfiles/place_api/icons/museum-71.png,ChIJEQzTm1rEYpYR9UxlehkVsus
Estadio Municipal de Renca,Renca,"Av. Domingo Sta. María 4043, Renca, XIII Metropolitana de Santiago","['stadium', 'point_of_interest', 'establishment']",-33.4060993,-70.70210399999999,Santiago,https://maps.gstatic.com/mapfiles/place_api/icons/generic_business-71.png,ChIJJSk5d6bGYpYRwZGqTUdRn9A
Centro Médico Salud Asistencia,Huechuraba,"Pedro Fontova 7323, Huechuraba, Región Metropolitana","['hospital', 'health', 'point_of_interest', 'establishment']",-33.3543703,-70.6703684,Santiago,https://maps.gstatic.com/mapfiles/place_api/icons/doctor-71.png,ChIJgfYenAfHYpYRnMpk0uYxGHY
Medicos a Domicilio Huechuraba,Huechuraba,"Pedro Fontova 6251, Huechuraba, Región Metropolitana","['hospital', 'point_of_interest', 'establishment']",-33.3663065,-70.67048679999999,Santiago,https://maps.gstatic.com/mapfiles/place_api/icons/doctor-71.png,ChIJywZLbP_GYpYRcsuukqwsITg
ExpoHospital,Huechuraba,"Av. El Salto 5000, Santiago, Huechuraba, Región Metropolitana","['hospital', 'point_of_interest', 'establishment']",-33.385305,-70.62263899999999,Santiago,https://maps.gstatic.com/mapfiles/place_api/icons/doctor-71.png,ChIJ5afmv6bFYpYRkW2VDQL1zgE
"Universidad Mayor, Huechuraba",Huechuraba,"Camino La Pirámide 5750, Huechuraba, Región Metropolitana","['university', 'point_of_interest', 'establishment']",-33.3775432,-70.6135419,Santiago,https://maps.gstatic.com/mapfiles/place_api/icons/school-71.png,ChIJD8wXsbrIYpYRIOBfjkm5d2s
"Facultad Economía Y Empresa, Universidad Diego Portales",Huechuraba,"Sta Clara 797, Huechuraba, Región Metropolitana","['university', 'point_of_interest', 'establishment']",-33.393169,-70.6126824,Santiago,https://maps.gstatic.com/mapfiles/place_api/icons/school-71.png,ChIJRZq4_qzIYpYRugrUfEVSZ28
"Universidad Mayor, Huechuraba",Huechuraba,"Camino La Pirámide 5750, Huechuraba, Región Metropolitana","['university', 'point_of_interest', 'establishment']",-33.3775432,-70.6135419,Santiago,https://maps.gstatic.com/mapfiles/place_api/icons/school-71.png,ChIJD8wXsbrIYpYRIOBfjkm5d2s
Biblioteca Municipal de Huechuraba,Huechuraba,"Av. Recoleta 5640, Huechuraba, Región Metropolitana","['library', 'point_of_interest', 'establishment']",-33.3739421,-70.6370417,Santiago,https://maps.gstatic.com/mapfiles/place_api/icons/school-71.png,ChIJjYjEezzGYpYRtKhkopgBxMw
Mallplaza Norte,Huechuraba,"Av. Américo Vespucio 1737, Huechuraba, Región Metropolitana","['shopping_mall', 'point_of_interest', 'establishment']",-33.3656145,-70.67851460000001,Santiago,https://maps.gstatic.com/mapfiles/place_api/icons/shopping-71.png,ChIJE38BusHHYpYR1tJe9xjEWus
Paris Plaza Norte,Huechuraba,"Pedro Fontova, Santiago, Huechuraba, Región Metropolitana","['shopping_mall', 'subpremise', 'furniture_store', 'home_goods_store', 'point_of_interest', 'clothing_store', 'store', 'establishment']",-33.3648237,-70.6797078,Santiago,https://maps.gstatic.com/mapfiles/place_api/icons/shopping-71.png,ChIJ8TwFZPzGYpYRJFJnn1Sac6I
Mueble Center,Huechuraba,"Av. Américo Vespucio 1849, Huechuraba, Región Metropolitana","['shopping_mall', 'point_of_interest', 'establishment']",-33.3664716,-70.6829858,Santiago,https://maps.gstatic.com/mapfiles/place_api/icons/shopping-71.png,ChIJK99W6eLGYpYR-nQf4cEkjTs
Fontova Strip Center,Huechuraba,"Avenue Pedro Fontova, Santiago, Huechuraba, Región Metropolitana","['shopping_mall', 'point_of_interest', 'establishment']",-33.3662233,-70.67015239999999,Santiago,https://maps.gstatic.com/mapfiles/place_api/icons/shopping-71.png,ChIJ1Z-ob__GYpYRXzAbQxmR2gQ
Toyota Portillo,Huechuraba,"Santa Elena de Huechuraba 1145, Huechuraba, Región Metropolitana","['shopping_mall', 'point_of_interest', 'establishment']",-33.3703758,-70.66261539999999,Santiago,https://maps.gstatic.com/mapfiles/place_api/icons/shopping-71.png,ChIJiciPz1DGYpYRoV_q9E9q9MM
Casacostanera,Vitacura,"Nueva Costanera 3900, Vitacura, Región Metropolitana","['shopping_mall', 'lodging', 'point_of_interest', 'establishment']",-33.3984818,-70.598562,Santiago,https://maps.gstatic.com/mapfiles/place_api/icons/shopping-71.png,ChIJf1_KckrPYpYRnmQts-8Uaok
Mall Costanera,Providencia,"Andrés Bello 2425, Providencia, Región Metropolitana","['shopping_mall', 'point_of_interest', 'establishment']",-33.4178955,-70.60753249999999,Santiago,https://maps.gstatic.com/mapfiles/place_api/icons/shopping-71.png,ChIJCacvhULPYpYRL-hmoN8b77o
Centro Artesanal Santa Lucia,Santiago,"Santiago, Santiago Metropolitan","['shopping_mall', 'point_of_interest', 'establishment']",-33.4426869,-70.64389299999999,Santiago,https://maps.gstatic.com/mapfiles/place_api/icons/shopping-71.png,ChIJWQPGvJ_FYpYRvEbLji0RT_M
Patio Bellavista,Providencia,"Bellavista, Providencia, Región Metropolitana","['shopping_mall', 'point_of_interest', 'establishment']",-33.4342079,-70.63497219999999,Santiago,https://maps.gstatic.com/mapfiles/place_api/icons/shopping-71.png,ChIJJa8lBEHFYpYRzlf94u7FVE0
Easton Outlet Mall,Quilicura,"Pdte Eduardo Frei Montalva, Quilicura, Región Metropolitana","['shopping_mall', 'point_of_interest', 'establishment']",-33.3346543,-70.71235899999999,Santiago,https://maps.gstatic.com/mapfiles/place_api/icons/shopping-71.png,ChIJ6-A5HEzHYpYR6FpaJ_wvLx4
Arauco Premium Outlet Buenaventura,Quilicura,"San Ignacio 500 Y 300, Quilicura, Región Metropolitana","['shopping_mall', 'point_of_interest', 'establishment']",-33.3320303,-70.7035477,Santiago,https://maps.gstatic.com/mapfiles/place_api/icons/shopping-71.png,ChIJ2wJIr1DHYpYRjy660q7bjhk
Parque Arauco,Las Condes,"Av Presidente Kennedy 5413, Las Condes, Región Metropolitana","['shopping_mall', 'point_of_interest', 'establishment']",-33.4021934,-70.57824939999999,Santiago,https://maps.gstatic.com/mapfiles/place_api/icons/shopping-71.png,ChIJRwJopCjPYpYRFLSKf8FBgSc
Rittal,Quilicura,"Galvarino 8501, Quilicura, Región Metropolitana","['shopping_mall', 'point_of_interest', 'establishment']",-33.341196,-70.7012422,Santiago,https://maps.gstatic.com/mapfiles/place_api/icons/shopping-71.png,ChIJ25vUhEbHYpYRyuVeQf2OeTE
Mall VIVO El Centro,Santiago,"Paseo Puente 689, Santiago, Región Metropolitana","['shopping_mall', 'point_of_interest', 'establishment']",-33.4351985,-70.6507637,Santiago,https://maps.gstatic.com/mapfiles/place_api/icons/shopping-71.png,ChIJ5fcWVbvFYpYRvVxovGY8XTQ
Alto Las Condes,Las Condes,"Av. Pdte. Kennedy Lateral 9001, Las Condes, Región Metropolitana","['shopping_mall', 'point_of_interest', 'establishment']",-33.390815,-70.545992,Santiago,https://maps.gstatic.com/mapfiles/place_api/icons/shopping-71.png,ChIJJbk1aLTOYpYRZPW8D7EnOc0
Casa Bosch Vitacura,Vitacura,"Alonso de Córdova 4213, Vitacura, Región Metropolitana","['shopping_mall', 'point_of_interest', 'establishment']",-33.4032561,-70.5895333,Santiago,https://maps.gstatic.com/mapfiles/place_api/icons/shopping-71.png,ChIJ-42IhDDPYpYRf5YwcSboolc
Museo Chileno de Arte Precolombino,Santiago,"Bandera 361, Santiago, Región Metropolitana","['museum', 'tourist_attraction', 'point_of_interest', 'establishment']",-33.4389304,-70.6521053,Santiago,https://maps.gstatic.com/mapfiles/place_api/icons/museum-71.png,ChIJ58cpbKTFYpYRw3pfdBEEHEQ
La Chascona,Providencia,"Fernando Márquez de La Plata 0192, Santiago, Providencia, Región Metropolitana","['museum', 'tourist_attraction', 'point_of_interest', 'establishment']",-33.4311212,-70.6344175,Santiago,https://maps.gstatic.com/mapfiles/place_api/icons/museum-71.png,ChIJbWHLF5DFYpYRFqGp8hFH-04
Estadio Municipal de Huechuraba,Huechuraba,"Guillermo Subiabre 1015, Santiago, Huechuraba, Región Metropolitana","['stadium', 'point_of_interest', 'establishment']",-33.3699887,-70.6421271,Santiago,https://maps.gstatic.com/mapfiles/place_api/icons/generic_business-71.png,ChIJH9_CMzjGYpYRyXIqqUdfsmc
Viña Santa Carolina,Macul,"Til Til 2228, 圣地亚哥, Macul, Región Metropolitana","['tourist_attraction', 'travel_agency', 'bar', 'food', 'point_of_interest', 'store', 'establishment']",-33.4757808,-70.6170755,Santiago,https://maps.gstatic.com/mapfiles/place_api/icons/bar-71.png,ChIJ8wBhvfnPYpYRw_zzcBPGMNY
Sapu Macul,Macul,"Las Encinas, SAPU Rosita Renard, Macul, Región Metropolitana","['hospital', 'point_of_interest', 'establishment']",-33.478751,-70.594917,Santiago,https://maps.gstatic.com/mapfiles/place_api/icons/doctor-71.png,ChIJbRLfn9_PYpYRlbFBKqLYUmk
Centro Medico San Joaquín,Macul,"Vicuña Mackenna 4686, Macul, Región Metropolitana","['hospital', 'doctor', 'dentist', 'health', 'point_of_interest', 'establishment']",-33.496805,-70.615409,Santiago,https://maps.gstatic.com/mapfiles/place_api/icons/doctor-71.png,ChIJX_vy1g7QYpYRTgV5Z9HXfx0
Centro Odontologico Macul,Macul,"Arturo Prat 4357, Macul, Región Metropolitana","['hospital', 'point_of_interest', 'establishment']",-33.4937023,-70.6147099,Santiago,https://maps.gstatic.com/mapfiles/place_api/icons/doctor-71.png,ChIJK4LH9gXQYpYRLCoFtWtocJw
Clinica UC.,Macul,"Macul, Región Metropolitana","['hospital', 'point_of_interest', 'establishment']",-33.4959872,-70.6077435,Santiago,https://maps.gstatic.com/mapfiles/place_api/icons/doctor-71.png,ChIJoV0KsRHQYpYR8rzQPiuZueg
Centro Medico Enmanuel y Cia.,Macul,"Escuela Agrícola 1579, Macul, Región Metropolitana","['hospital', 'point_of_interest', 'establishment']",-33.4915703,-70.6161892,Santiago,https://maps.gstatic.com/mapfiles/place_api/icons/doctor-71.png,ChIJxxQRhwbQYpYRzNS5lbcLM-E
Clinica Hospital Clinico Universidad de Chile,Peñalolén,"Mar Tirreno 3349, Penalolen, Peñalolén, Región Metropolitana","['hospital', 'point_of_interest', 'establishment']",-33.4876434,-70.57689069999999,Santiago,https://maps.gstatic.com/mapfiles/place_api/icons/doctor-71.png,ChIJfUzy6cbFYpYRwvkoDxS67qs
Manuel sanchez clinica,Macul,"Manuel Sánchez 3267-3287, Macul, Región Metropolitana","['hospital', 'point_of_interest', 'establishment']",-33.4750316,-70.597599,Santiago,https://maps.gstatic.com/mapfiles/place_api/icons/doctor-71.png,ChIJfXfaNKPPYpYRFF0eCklOM7E
Examenes Practicos,Macul,"Vicuña Mackenna 4686, Macul, Región Metropolitana","['hospital', 'point_of_interest', 'establishment']",-33.4969193,-70.6152247,Santiago,https://maps.gstatic.com/mapfiles/place_api/icons/doctor-71.png,ChIJ_fWT3GPRYpYR6uyH_3f_9TQ
Hogar De Ancianos El Atardecer,Macul,"El Líbano 4352, Macul, Región Metropolitana","['hospital', 'point_of_interest', 'establishment']",-33.4923296,-70.5909332,Santiago,https://maps.gstatic.com/mapfiles/place_api/icons/doctor-71.png,ChIJLWjPGy7RYpYReaxl99kxy2Q
Hospital Dr. Luis Tisné Brousse,Peñalolén,"Av. Las Torres 5150, Santiago, Peñalolén, Región Metropolitana","['hospital', 'point_of_interest', 'establishment']",-33.5007893,-70.57912689999999,Santiago,https://maps.gstatic.com/mapfiles/place_api/icons/doctor-71.png,ChIJU2TJzEvQYpYRMKZ1vfbM-8I
Medicos a Domicilio Macul,Macul,"Uno Nte 1939, Santiago, Macul, Región Metropolitana","['hospital', 'point_of_interest', 'establishment']",-33.475103,-70.61241199999999,Santiago,https://maps.gstatic.com/mapfiles/place_api/icons/doctor-71.png,ChIJkROsBvvPYpYRVUAKXgD8XRM
Centro de Especialidades Clínicas SpA.,Macul,"Av Macul 4214, Macul, Región Metropolitana","['hospital', 'point_of_interest', 'establishment']",-33.4926208,-70.59955769999999,Santiago,https://maps.gstatic.com/mapfiles/place_api/icons/doctor-71.png,ChIJbxo0sW3RYpYR2FJqtmaC_Ys
Sapu lo Hermida,Peñalolén,"El Litoral 5960, Penalolen, Peñalolén, Región Metropolitana","['hospital', 'point_of_interest', 'establishment']",-33.4741365,-70.57427109999999,Santiago,https://maps.gstatic.com/mapfiles/place_api/icons/doctor-71.png,ChIJ50raetXRYpYRHwWSFA_DfUc
Dental alfa,Peñalolén,"Andes 4950, Penalolen, Peñalolén, Región Metropolitana","['hospital', 'point_of_interest', 'establishment']",-33.5038541,-70.5872638,Santiago,https://maps.gstatic.com/mapfiles/place_api/icons/doctor-71.png,ChIJjVUHOUbQYpYRRcUu1Ofkq-k
Alfa dental,Peñalolén,"Villa Gildemeister 4360-5602, Penalolen, Peñalolén, Región Metropolitana","['hospital', 'point_of_interest', 'establishment']",-33.5081144,-70.5890917,Santiago,https://maps.gstatic.com/mapfiles/place_api/icons/doctor-71.png,ChIJERrtUkTQYpYRXrBRPjHZ6LA
OzonoMedicare,Peñalolén,"5530 local 5630c, Av. Grecia, Penalolen, Peñalolén, Región Metropolitana","['hospital', 'point_of_interest', 'establishment']",-33.4693731,-70.575693,Santiago,https://maps.gstatic.com/mapfiles/place_api/icons/doctor-71.png,ChIJpctGGNPPYpYRbDP_TS84Lbc
Hospital Clínico San Borja Arriarán,Santiago,"Av. Sta. Rosa 1234, Santiago, Región Metropolitana","['hospital', 'point_of_interest', 'establishment']",-33.4612012,-70.6417943,Santiago,https://maps.gstatic.com/mapfiles/place_api/icons/doctor-71.png,ChIJuyMod2vFYpYRyKnTuscID8c
hospital de maternidad,Peñalolén,"Unnamed Road, Penalolen, Peñalolén, Región Metropolitana","['hospital', 'point_of_interest', 'establishment']",-33.5012622,-70.5792926,Santiago,https://maps.gstatic.com/mapfiles/place_api/icons/doctor-71.png,ChIJN7sPFETRYpYRWDxOG0ohsjI
Centro Referencial de Salud CRS Cordillera Oriente,Peñalolén,"Av. Las Torres 5100, Penalolen, Peñalolén, Región Metropolitana","['hospital', 'point_of_interest', 'establishment']",-33.5016543,-70.5792786,Santiago,https://maps.gstatic.com/mapfiles/place_api/icons/doctor-71.png,ChIJczOhMkrQYpYRMrRZT-lGYWw
Hospital del Salvador,Providencia,"Av. Salvador 364, Providencia, Región Metropolitana","['hospital', 'point_of_interest', 'establishment']",-33.436952,-70.624884,Santiago,https://maps.gstatic.com/mapfiles/place_api/icons/doctor-71.png,ChIJU48N0obFYpYRRZQrbQhsrO0
Hospital Luis Calvo Mackenna,Providencia,"Antonio Varas 360, Santiago, Providencia, Región Metropolitana","['hospital', 'point_of_interest', 'establishment']",-33.4300141,-70.61491980000001,Santiago,https://maps.gstatic.com/mapfiles/place_api/icons/doctor-71.png,ChIJp_eLUXvPYpYR9-lIJuDLWGo
Hospital de Urgencia Asistencia Pública,Santiago,"Curicó 345, Santiago, Región Metropolitana","['hospital', 'point_of_interest', 'establishment']",-33.4436892,-70.6379906,Santiago,https://maps.gstatic.com/mapfiles/place_api/icons/doctor-71.png,ChIJe-Ejip3FYpYRUw0ILXsb0vc
Urgencia Infantil,Santiago,"Amazonas 619, Santiago, Región Metropolitana","['hospital', 'point_of_interest', 'establishment']",-33.4603265,-70.6417264,Santiago,https://maps.gstatic.com/mapfiles/place_api/icons/doctor-71.png,ChIJp2EmemzFYpYRTh3iL0vw16c
Instituto Nacional de Rehabilitación Pedro Aguirre Cerda,Peñalolén,"José Arrieta 5969, Penalolen, Peñalolén, Región Metropolitana","['hospital', 'point_of_interest', 'establishment']",-33.46000739999999,-70.569716,Santiago,https://maps.gstatic.com/mapfiles/place_api/icons/doctor-71.png,ChIJX5WzkzPOYpYRNHbRDZ-4Kug
Hospital Dr. Lucio Córdova,Santiago,"Av. Sta. Rosa 3453, San Miguel, Santiago, Región Metropolitana","['hospital', 'point_of_interest', 'establishment']",-33.4862207,-70.6410385,Santiago,https://maps.gstatic.com/mapfiles/place_api/icons/doctor-71.png,ChIJTxKMP0vFYpYRWFrSZx6HazI
clinica santa maria,Santiago,"Franklin 193, Santiago, Región Metropolitana","['hospital', 'point_of_interest', 'establishment']",-33.471316,-70.6280651,Santiago,https://maps.gstatic.com/mapfiles/place_api/icons/doctor-71.png,ChIJM0u_EDbFYpYRywhCqsvIA-U
Hospital Veterinario Santiago,Santiago,"Av. Sta. Rosa 1934, Santiago, Región Metropolitana","['hospital', 'point_of_interest', 'establishment']",-33.470733,-70.6422099,Santiago,https://maps.gstatic.com/mapfiles/place_api/icons/doctor-71.png,ChIJpwQVJkHFYpYRr5TR4HEhcrU
Hospital del Trabajador,Providencia,"Ramón Carnicer 185, Santiago, Providencia, Región Metropolitana","['hospital', 'point_of_interest', 'establishment']",-33.4435918,-70.6325056,Santiago,https://maps.gstatic.com/mapfiles/place_api/icons/doctor-71.png,ChIJpzgAoILFYpYRoWO58-HrcgU
Hospital San Juan de Dios,Santiago,"Huérfanos 3255, Santiago, Región Metropolitana","['hospital', 'point_of_interest', 'establishment']",-33.44238199999999,-70.6790012,Santiago,https://maps.gstatic.com/mapfiles/place_api/icons/doctor-71.png,ChIJwWTN_lDEYpYRF9diEhDR08g
Cruz Roja,Santiago,"José Arrieta 6068, La Reina, Santiago, Región Metropolitana","['hospital', 'point_of_interest', 'establishment']",-33.460282,-70.5686616,Santiago,https://maps.gstatic.com/mapfiles/place_api/icons/doctor-71.png,ChIJcVnQ5DPOYpYRDZkrHcNAxUU
Centro Médico y Laboratorio Rätsel,Peñalolén,"Santiago, Peñalolén, Región Metropolitana","['hospital', 'health', 'point_of_interest', 'establishment']",-33.46295,-70.572183,Santiago,https://maps.gstatic.com/mapfiles/place_api/icons/doctor-71.png,ChIJ0zQ74jLOYpYRekX7dd1m4Dg
Hospital Clínico UC Christus,Santiago,"Marcoleta 367, Santiago, Región Metropolitana","['hospital', 'point_of_interest', 'establishment']",-33.44230710000001,-70.6405827,Santiago,https://maps.gstatic.com/mapfiles/place_api/icons/doctor-71.png,ChIJrXSHcZ7FYpYRIJPS9EzlRRo
Alcaldia de la Ilustre Municipalidad de Macul,Macul,"Los Plátanos 3130, Macul, Región Metropolitana","['city_hall', 'local_government_office', 'point_of_interest', 'establishment']",-33.4816554,-70.5999295,Santiago,https://maps.gstatic.com/mapfiles/place_api/icons/civic_building-71.png,ChIJ08AcExvQYpYRfZ_B4kPODLE
La Comarca,Macul,"Los Espinos 3329, Macul, Región Metropolitana","['city_hall', 'local_government_office', 'point_of_interest', 'establishment']",-33.4772803,-70.598056,Santiago,https://maps.gstatic.com/mapfiles/place_api/icons/civic_building-71.png,ChIJ_0_8guDPYpYRZxb8ddVgrv8
Municipalidad de Providencia,Providencia,"Av. Pedro de Valdivia 963, Providencia, Región Metropolitana","['city_hall', 'local_government_office', 'point_of_interest', 'establishment']",-33.4323593,-70.61024689999999,Santiago,https://maps.gstatic.com/mapfiles/place_api/icons/civic_building-71.png,ChIJEUuwlnDPYpYR7pfgrg4J6lo
Municipalidad De Peñalolén,Peñalolén,"Av. Grecia 8735, Penalolen, Peñalolén, Región Metropolitana","['city_hall', 'local_government_office', 'point_of_interest', 'establishment']",-33.4764862,-70.5423927,Santiago,https://maps.gstatic.com/mapfiles/place_api/icons/civic_building-71.png,ChIJGfBngOPRYpYRHitANgLJppU
Municipalidad de Santiago ingeniería en tránsito,Santiago,"Plaza de Armas s/n, Santiago, Región Metropolitana","['city_hall', 'local_government_office', 'point_of_interest', 'establishment']",-33.4371435,-70.6502521,Santiago,https://maps.gstatic.com/mapfiles/place_api/icons/civic_building-71.png,ChIJZ10XLA3FYpYR4B_QftCY3R0
Municipalidad de Recoleta,Recoleta,"Av. Recoleta 2774, Recoleta, Región Metropolitana","['city_hall', 'local_government_office', 'point_of_interest', 'establishment']",-33.4020276,-70.6434514,Santiago,https://maps.gstatic.com/mapfiles/place_api/icons/civic_building-71.png,ChIJWaHmnQrGYpYRbwbQ9Ua3qso
Municipalidad de Las Condes,Las Condes,"Av. Apoquindo 3400, Las Condes, Región Metropolitana","['city_hall', 'local_government_office', 'point_of_interest', 'establishment']",-33.4160267,-70.5947928,Santiago,https://maps.gstatic.com/mapfiles/place_api/icons/civic_building-71.png,ChIJn-erbRXPYpYR08AgD0XtQLg
Ilustre Municipalidad de Santiago,Santiago,"Santo Domingo 916, Santiago, Región Metropolitana","['city_hall', 'local_government_office', 'point_of_interest', 'establishment']",-33.436248,-70.65021899999999,Santiago,https://maps.gstatic.com/mapfiles/place_api/icons/civic_building-71.png,ChIJNd0PB47FYpYR3v_tWjUxyVM
Municipalidad de Quinta Normal,Quinta Normal,"Carrascal 4447, Quinta Normal, Región Metropolitana","['city_hall', 'local_government_office', 'point_of_interest', 'establishment']",-33.4226317,-70.6933948,Santiago,https://maps.gstatic.com/mapfiles/place_api/icons/civic_building-71.png,ChIJN1Z93hXEYpYRnQ-0RVAY9cM
Ayuntamiento 1948 Qta Normal,Recoleta,"Fariña 555, Recoleta, Región Metropolitana","['city_hall', 'local_government_office', 'point_of_interest', 'establishment']",-33.4251447,-70.6492815,Santiago,https://maps.gstatic.com/mapfiles/place_api/icons/civic_building-71.png,ChIJ_wTobb_FYpYR-KVyVQ8vRhI
Pontificia Universidad Católica de Chile - Campus San Joaquín,Macul,"Av. Vicuña Mackenna 4860, Macul, Región Metropolitana","['university', 'point_of_interest', 'establishment']",-33.4986449,-70.6125454,Santiago,https://maps.gstatic.com/mapfiles/place_api/icons/school-71.png,ChIJTZ1Oqw7QYpYRU_hrItNVD0I
Escuela de Ingeniería UC,Macul,"Santiago, Macul, Región Metropolitana","['university', 'point_of_interest', 'establishment']",-33.5000078,-70.61363990000001,Santiago,https://maps.gstatic.com/mapfiles/place_api/icons/school-71.png,ChIJg89oMwzQYpYRORyAXGh0VzM
Instituto de Nutrición y Tecnología de los Alimentos de la Universidad de Chile,Macul,"El Líbano 5524, Macul, Región Metropolitana","['university', 'point_of_interest', 'establishment']",-33.5020714,-70.5929937,Santiago,https://maps.gstatic.com/mapfiles/place_api/icons/school-71.png,ChIJ3-IuzEDQYpYRXEivp9gdr1o
Facultad de Agronomía e Ingeniería Forestal,Macul,"Avenida Vicuña Mackenna 4860, Santiago, Macul, Región Metropolitana","['university', 'point_of_interest', 'establishment']",-33.4965552,-70.6095297,Santiago,https://maps.gstatic.com/mapfiles/place_api/icons/school-71.png,ChIJF9np2RHQYpYRWSfqWSlKJq0
"Campus San Joaquín, Pontificia Universidad Católica de Chile",Macul,"Monseñor Carlos Casanueva 547, Macul, Región Metropolitana","['university', 'point_of_interest', 'establishment']",-33.4975247,-70.61225999999999,Santiago,https://maps.gstatic.com/mapfiles/place_api/icons/school-71.png,ChIJEwPWAA_QYpYRH8RGPAT45Cg
Campus San Joaquin,Macul,"Vicuña Mackenna 4860, Macul, Región Metropolitana","['university', 'point_of_interest', 'establishment']",-33.4993401,-70.6142559,Santiago,https://maps.gstatic.com/mapfiles/place_api/icons/school-71.png,ChIJf7X5HwzQYpYRzwrnug4hzhQ
Puc,Macul,"Benito Rebolledo 2100, Macul, Región Metropolitana","['university', 'point_of_interest', 'establishment']",-33.5015263,-70.608525,Santiago,https://maps.gstatic.com/mapfiles/place_api/icons/school-71.png,ChIJ0chajBLQYpYRrbOs4otqgjw
Instituto de Filosofía UC,Macul,"Monseñor Carlos Casanueva 547, Macul, Región Metropolitana","['university', 'point_of_interest', 'establishment']",-33.4966735,-70.61411559999999,Santiago,https://maps.gstatic.com/mapfiles/place_api/icons/school-71.png,ChIJkZ1H4A7QYpYRmraiwqYkeLA
"Instituto de Física, UC",Macul,"Santiago, Macul, Región Metropolitana","['university', 'point_of_interest', 'establishment']",-33.4995936,-70.611128,Santiago,https://maps.gstatic.com/mapfiles/place_api/icons/school-71.png,ChIJhYwP6Q3QYpYROmoP2ebxRVM
Universidad Tecnológica de Chile INACAP,Macul,"Vicuña Mackenna 3864-4098, Macul, Región Metropolitana","['university', 'point_of_interest', 'establishment']",-33.4908126,-70.6171044,Santiago,https://maps.gstatic.com/mapfiles/place_api/icons/school-71.png,ChIJuVwZkwbQYpYRFi5X3itJSkY
Finis Terrae Facultad Odontologia Campus Macul,Macul,"Gregorio de la Fuente 3521, Macul, Región Metropolitana","['university', 'point_of_interest', 'establishment']",-33.478621,-70.5959682,Santiago,https://maps.gstatic.com/mapfiles/place_api/icons/school-71.png,ChIJ01kwvN_PYpYRKD2HeXb7RaU
Escuela de Psicología UC,Macul,"Av. Vicuña Mackenna 4860, Macul, Región Metropolitana","['university', 'point_of_interest', 'establishment']",-33.4984515,-70.6102235,Santiago,https://maps.gstatic.com/mapfiles/place_api/icons/school-71.png,ChIJI1zsBA7QYpYRqX3dOi4Xki8
Kinesiología UC,Macul,"Benito Rebolledo 1988-2054, Macul, Región Metropolitana","['university', 'point_of_interest', 'establishment']",-33.5002947,-70.6102568,Santiago,https://maps.gstatic.com/mapfiles/place_api/icons/school-71.png,ChIJ6SU9jA3QYpYR1kwXilj61kQ
Mide UC,Macul,"Monseñor Carlos Casanueva, Macul, Región Metropolitana","['university', 'point_of_interest', 'establishment']",-33.49698,-70.610203,Santiago,https://maps.gstatic.com/mapfiles/place_api/icons/school-71.png,ChIJQVv3Iw7QYpYRCi1vL4pQwdA
Facultad de Ciencias Económicas y Administrativas UC,Macul,"Av. Vicuña Mackenna 4860, Macul, Región Metropolitana","['university', 'point_of_interest', 'establishment']",-33.4970188,-70.6114601,Santiago,https://maps.gstatic.com/mapfiles/place_api/icons/school-71.png,ChIJd6k4Nw7QYpYRi_g4rpNlinA
Universidad Santo Tomás,Macul,"Av. Vicuña Mackenna 4835, San Joaquín, Macul, Región Metropolitana","['university', 'point_of_interest', 'establishment']",-33.4989631,-70.6160479,Santiago,https://maps.gstatic.com/mapfiles/place_api/icons/school-71.png,ChIJcSYQUgnQYpYRRs1GrAezF9s
Instituto de Sociología,Macul,"Santiago, Macul, Región Metropolitana","['university', 'point_of_interest', 'establishment']",-33.4985838,-70.6102145,Santiago,https://maps.gstatic.com/mapfiles/place_api/icons/school-71.png,ChIJ6YRGBw7QYpYR07kVoZ5OoT4
Facultad de Teología UC,Macul,"Av. Macul, Vicuña Mackenna 4860, Santiago, Macul, Región Metropolitana","['university', 'point_of_interest', 'establishment']",-33.4976742,-70.61083839999999,Santiago,https://maps.gstatic.com/mapfiles/place_api/icons/school-71.png,ChIJW4ILGw7QYpYRRhjQeUYXvPI
Facultad de Ciencias Sociales PUC,Macul,"Macul, Región Metropolitana","['university', 'point_of_interest', 'establishment']",-33.4987034,-70.61009609999999,Santiago,https://maps.gstatic.com/mapfiles/place_api/icons/school-71.png,ChIJ6_8S_g3QYpYRLqH0ni06Z-8
Escuela de Trabajo Social,Macul,"Santiago, Macul, Región Metropolitana","['university', 'point_of_interest', 'establishment']",-33.4992481,-70.6101206,Santiago,https://maps.gstatic.com/mapfiles/place_api/icons/school-71.png,ChIJ8XPx-Q3QYpYRhk0B9VGLqiQ
Sede San Joaquín,Macul,"Vicuña Mackenna 4860, Macul, Región Metropolitana","['university', 'point_of_interest', 'establishment']",-33.4994924,-70.6150049,Santiago,https://maps.gstatic.com/mapfiles/place_api/icons/school-71.png,ChIJJRW0AgzQYpYRWN4Tygdd3Jc
Paradero Uai,Macul,"Rodrigo de Araya 5083-5089, Macul, Región Metropolitana","['university', 'point_of_interest', 'establishment']",-33.4702601,-70.577687,Santiago,https://maps.gstatic.com/mapfiles/place_api/icons/school-71.png,ChIJ2Qgao9PPYpYRjtLDGMG9id8
Aulas Lassen Campus San Joaquín Pontificia Universidad Católica,Macul,"Av. Pedro de Valdivia 2513, Macul, Región Metropolitana","['university', 'point_of_interest', 'establishment']",-33.4975974,-70.6088432,Santiago,https://maps.gstatic.com/mapfiles/place_api/icons/school-71.png,ChIJu8wG5xHQYpYRXMkaVB-ruCE
"Aula Magna, Campus San Joaquín",Macul,"Macul, Región Metropolitana","['university', 'point_of_interest', 'establishment']",-33.4979597,-70.6092834,Santiago,https://maps.gstatic.com/mapfiles/place_api/icons/school-71.png,ChIJeVQO-xHQYpYR9yLaq7hAGSE
Estacionamiento Ingeniería,Macul,"Benito Rebolledo 2054, Macul, Región Metropolitana","['university', 'point_of_interest', 'establishment']",-33.5013622,-70.6097959,Santiago,https://maps.gstatic.com/mapfiles/place_api/icons/school-71.png,ChIJMy7efw3QYpYR_Oi9Q4Ao21s
"Departamento de Ingeniería Estructural y Geotécnica, Escuela de Ingeniería, Pontificia Universidad Católica de Chile",La Florida,"Av. Vicuña Mackenna 4860, Macul, La Florida, Región Metropolitana","['university', 'point_of_interest', 'establishment']",-33.4991127,-70.6145159,Santiago,https://maps.gstatic.com/mapfiles/place_api/icons/school-71.png,ChIJQbZD14nRYpYRmavMxBYi-pA
Escuela de Odontología,Macul,"Santiago, Macul, Región Metropolitana","['university', 'point_of_interest', 'establishment']",-33.4974397,-70.6147084,Santiago,https://maps.gstatic.com/mapfiles/place_api/icons/school-71.png,ChIJLTS2ww7QYpYR7TkGZYHsi0Q
"Facultad de Física, UC",Macul,"Macul, Región Metropolitana","['university', 'point_of_interest', 'establishment']",-33.4993354,-70.6109226,Santiago,https://maps.gstatic.com/mapfiles/place_api/icons/school-71.png,ChIJFfFz5g3QYpYRfxATs1Bq5aw
"Ciencias Agrícolas, Magíster Profesional, Doctorado en Agronomía",Macul,"Vicuña Mackenna 4860, Santiago, Macul, Región Metropolitana","['university', 'point_of_interest', 'establishment']",-33.496755,-70.609522,Santiago,https://maps.gstatic.com/mapfiles/place_api/icons/school-71.png,ChIJq10K2RHQYpYRDh4k7XN5Bhk
MIE UC - Magíster en Ingeniería de la Energía,Macul,"Benito Rebolledo 1800-1870, Macul, Región Metropolitana","['university', 'point_of_interest', 'establishment']",-33.5004539,-70.6135444,Santiago,https://maps.gstatic.com/mapfiles/place_api/icons/school-71.png,ChIJKRsYOAzQYpYRk9ewZ1haM2g
Departamento de Ingenieria de Minería,Macul,"Macul, Región Metropolitana","['university', 'point_of_interest', 'establishment']",-33.4999468,-70.61467259999999,Santiago,https://maps.gstatic.com/mapfiles/place_api/icons/school-71.png,ChIJJ1PU5KHRYpYRC3Zg4RnVqPk
Facultad de Matemáticas UC,Macul,"Vicuña Mackenna 4860, Macul, Región Metropolitana","['university', 'point_of_interest', 'establishment']",-33.4997571,-70.6105905,Santiago,https://maps.gstatic.com/mapfiles/place_api/icons/school-71.png,ChIJe-rl7Q3QYpYRnBmuWM0Jxug
Escuela de Construcción Civil (Salas C),Macul,"Santiago, Macul, Región Metropolitana","['university', 'point_of_interest', 'establishment']",-33.4989019,-70.61370649999999,Santiago,https://maps.gstatic.com/mapfiles/place_api/icons/school-71.png,ChIJiVI7nA7QYpYREL7sI8vjH6E
Facultad de Educación UC,La Florida,"Av. Vicuña Mackenna 4860, Macul, La Florida, Región Metropolitana","['university', 'point_of_interest', 'establishment']",-33.4981266,-70.6145344,Santiago,https://maps.gstatic.com/mapfiles/place_api/icons/school-71.png,ChIJmdU8vw7QYpYRdnsSy9-r1vI
Campus San Joaquín,Macul,"Benito Rebolledo, Macul, Región Metropolitana","['university', 'point_of_interest', 'establishment']",-33.5016501,-70.60815029999999,Santiago,https://maps.gstatic.com/mapfiles/place_api/icons/school-71.png,ChIJpSGF8hLQYpYRT3McqndX1FA
DECON UC,Macul,"Santiago, Macul, Región Metropolitana","['university', 'point_of_interest', 'establishment']",-33.4967662,-70.6076908,Santiago,https://maps.gstatic.com/mapfiles/place_api/icons/school-71.png,ChIJmWR0vRHQYpYR-2vcWpHth_Y
Inacap Macul,Macul,"Av. Vicuña Mackenna Ote., Macul, Región Metropolitana","['university', 'point_of_interest', 'establishment']",-33.4910631,-70.6166997,Santiago,https://maps.gstatic.com/mapfiles/place_api/icons/school-71.png,ChIJIX9PUmbRYpYRNK9w_m8wXzk
Casa De estudios,Macul,"Vicuña Mackenna, Macul, Región Metropolitana","['university', 'point_of_interest', 'establishment']",-33.49086,-70.61721800000001,Santiago,https://maps.gstatic.com/mapfiles/place_api/icons/school-71.png,ChIJz9TetpzRYpYRofno6LJdzsA
"Facultad de Historia, Geografía y Ciencia Política",Macul,"Santiago, Macul, Región Metropolitana","['university', 'point_of_interest', 'establishment']",-33.4970651,-70.6132203,Santiago,https://maps.gstatic.com/mapfiles/place_api/icons/school-71.png,ChIJaX5l-g7QYpYRTZk-eZY1q-8
Unidad Central de Instrumentacion (UCI),Macul,"Avda. Vicuña Mackenna 4860, Macul, Región Metropolitana","['university', 'point_of_interest', 'establishment']",-33.4986154,-70.61158139999999,Santiago,https://maps.gstatic.com/mapfiles/place_api/icons/school-71.png,ChIJPbsWMUnRYpYRTG57QrkLUA0
Edificio Raúl Devés,Macul,"Benito Rebolledo 1872-1976, Macul, Región Metropolitana","['university', 'point_of_interest', 'establishment']",-33.4996166,-70.6127475,Santiago,https://maps.gstatic.com/mapfiles/place_api/icons/school-71.png,ChIJuQLN0g3QYpYRMxiSgJTk9lU
Escuela de Enfermería,Macul,"Santiago, Macul, Región Metropolitana","['university', 'point_of_interest', 'establishment']",-33.498853,-70.61303529999999,Santiago,https://maps.gstatic.com/mapfiles/place_api/icons/school-71.png,ChIJ3e8KgQ7QYpYRaxi3edms0p8
Ingeniería Hidráulica UC,Macul,"Vicuña Mackenna 4860, Macul, Región Metropolitana","['university', 'point_of_interest', 'establishment']",-33.4996451,-70.6144946,Santiago,https://maps.gstatic.com/mapfiles/place_api/icons/school-71.png,ChIJcSPPHgzQYpYR-moYEKO108I
"Sala Múltiples Usos, Escuela de Ingeniería UC",Macul,"Benito Rebolledo 1976, Macul, Región Metropolitana","['university', 'point_of_interest', 'establishment']",-33.4995932,-70.6118401,Santiago,https://maps.gstatic.com/mapfiles/place_api/icons/school-71.png,ChIJYRsrxQ3QYpYRIwlhXFxQk78
Edificio Ciencias De La Salud - Facultad De Medicina,Macul,"Benito Rebolledo 8, Macul, Región Metropolitana","['university', 'health', 'point_of_interest', 'establishment']",-33.5003647,-70.6094782,Santiago,https://maps.gstatic.com/mapfiles/place_api/icons/school-71.png,ChIJx07ZdhLQYpYRKRAGD9HDAvo
IpChile,Macul,"Av. Vicuña Mackenna, Macul, Región Metropolitana","['university', 'point_of_interest', 'establishment']",-33.4848477,-70.61987979999999,Santiago,https://maps.gstatic.com/mapfiles/place_api/icons/school-71.png,ChIJDxKhi8jRYpYRupP-wkwUkq0
IAP,Macul,"Avendia Vicuna Mackenna, Santiago, Macul, Región Metropolitana","['university', 'point_of_interest', 'establishment']",-33.4969465,-70.61404999999999,Santiago,https://maps.gstatic.com/mapfiles/place_api/icons/school-71.png,ChIJabrX5g7QYpYRaULIdS7n3L0
OPED,Macul,"Raquel 4682, Macul, Región Metropolitana","['university', 'point_of_interest', 'establishment']",-33.4981354,-70.61394419999999,Santiago,https://maps.gstatic.com/mapfiles/place_api/icons/school-71.png,ChIJvVBplA7QYpYRK0dr6sJKu1c
Católica,Macul,"Raquel 4658-4664, Macul, Región Metropolitana","['university', 'point_of_interest', 'establishment']",-33.4985007,-70.61541729999999,Santiago,https://maps.gstatic.com/mapfiles/place_api/icons/school-71.png,ChIJVUTsswnRYpYR4BPD-kgRUZw
Universidad catolica sj,Macul,"Unnamed Road, Macul, Región Metropolitana","['university', 'point_of_interest', 'establishment']",-33.4988575,-70.6120873,Santiago,https://maps.gstatic.com/mapfiles/place_api/icons/school-71.png,ChIJV5armHvRYpYRZFoWBWzkKeg
